{
  "type": "FeatureCollection",
  "generator": "overpass-ide",
  "copyright": "The data included in this document is from www.openstreetmap.org. The data is made available under ODbL.",
  "timestamp": "2022-05-31T17:29:24Z",
  "features": [
    {
      "type": "Feature",
      "properties": {
        "@id": "node/29296075",
        "historic": "archaeological_site",
        "megalith_type": "stone_circle",
        "name": "Druid Stone Circle",
        "note": "Druidical Circle(?) - npe",
        "site_type": "megalith",
        "source": "npe",
        "wikidata": "Q5089468",
        "wikipedia": "en:Cheetham Close"
      },
      "geometry": {
        "type": "Point",
        "coordinates": [
          -2.4302961,
          53.638058
        ]
      },
      "id": "node/29296075"
    },
    {
      "type": "Feature",
      "properties": {
        "@id": "node/29450623",
        "description": "Stone circle",
        "historic": "archaeological_site",
        "megalith_type": "stone_circle",
        "name": "stone circle",
        "site_type": "megalith",
        "source": "OS 1:25k"
      },
      "geometry": {
        "type": "Point",
        "coordinates": [
          -1.7986322,
          53.8878244
        ]
      },
      "id": "node/29450623"
    },
    {
      "type": "Feature",
      "properties": {
        "@id": "node/29457182",
        "alt_name": "Rumbles Law; Roms Law",
        "description": "Stone circle. About 11 circle short (50cm or so) stones visible and a further two flat near the centre.",
        "historic": "archaeological_site",
        "megalith_type": "stone_circle",
        "name": "Grubstones Circle",
        "site_type": "megalith",
        "source": "OS 1:25k;survey"
      },
      "geometry": {
        "type": "Point",
        "coordinates": [
          -1.793779,
          53.8985277
        ]
      },
      "id": "node/29457182"
    },
    {
      "type": "Feature",
      "properties": {
        "@id": "node/31289623",
        "alt_name": "Carnholy I;Carn Holy;Kirkdale;Cairn Holy Chambered Cairn;Cairn Holy 1",
        "description": "Cairn Holy, chambered cairn 190m SSW of Cairnholy",
        "historic": "archaeological_site",
        "material": "stone",
        "megalith_type": "chambered_cairn",
        "name": "Cairnholy 1",
        "site_type": "megalith",
        "website": "https://www.megalithic.co.uk/article.php?sid=517",
        "wikidata": "Q56667464"
      },
      "geometry": {
        "type": "Point",
        "coordinates": [
          -4.3106806,
          54.8578354
        ]
      },
      "id": "node/31289623"
    },
    {
      "type": "Feature",
      "properties": {
        "@id": "node/101397008",
        "heritage": "2",
        "heritage:operator": "cadw",
        "historic": "archaeological_site",
        "historic:civilization": "prehistoric",
        "historic:era": "neolithic",
        "historic:period": "stone-age",
        "mapillary": "E_jfC2yVxKcBEhTYdAYNWg",
        "megalith_type": "dolmen",
        "name": "Dolmen / Cromlech",
        "name:cy": "Cromlech",
        "name:en": "Dolmen",
        "ref:cadw": "PE008",
        "site_type": "megalith",
        "source": "survey",
        "wikimedia_commons": "File:DMPentreIfanSide.JPG",
        "wikipedia": "en:Pentre Ifan"
      },
      "geometry": {
        "type": "Point",
        "coordinates": [
          -4.7700299,
          51.998967
        ]
      },
      "id": "node/101397008"
    },
    {
      "type": "Feature",
      "properties": {
        "@id": "node/247894413",
        "historic": "archaeological_site",
        "megalith_type": "menhir",
        "name": "Churn Milk Joan",
        "opening_hours": "24/7",
        "site_type": "megalith"
      },
      "geometry": {
        "type": "Point",
        "coordinates": [
          -1.9715427,
          53.745583
        ]
      },
      "id": "node/247894413"
    },
    {
      "type": "Feature",
      "properties": {
        "@id": "node/248489133",
        "historic": "archaeological_site",
        "megalith_type": "stone_circle",
        "name": "Crow Hill Cairn Circle",
        "site_type": "megalith"
      },
      "geometry": {
        "type": "Point",
        "coordinates": [
          -1.9620583,
          53.7402767
        ]
      },
      "id": "node/248489133"
    },
    {
      "type": "Feature",
      "properties": {
        "@id": "node/254300938",
        "alt_name": "Easter Aquhorthies Stone Circle",
        "historic": "archaeological_site",
        "historic:civilization": "neolithic",
        "megalith_type": "stone_circle",
        "name": "East Aquhorthies Stone Circle",
        "name:gd": "Tursachan Achadh Choirthe an Ear",
        "site_type": "megalith",
        "tourism": "attraction",
        "wikidata": "Q1278090",
        "wikipedia": "en:Easter Aquhorthies"
      },
      "geometry": {
        "type": "Point",
        "coordinates": [
          -2.4455631,
          57.2770129
        ]
      },
      "id": "node/254300938"
    },
    {
      "type": "Feature",
      "properties": {
        "@id": "node/254303042",
        "historic": "archaeological_site",
        "megalith_type": "menhir",
        "site_type": "megalith"
      },
      "geometry": {
        "type": "Point",
        "coordinates": [
          -2.4454044,
          57.2770144
        ]
      },
      "id": "node/254303042"
    },
    {
      "type": "Feature",
      "properties": {
        "@id": "node/254303043",
        "historic": "archaeological_site",
        "megalith_type": "menhir",
        "site_type": "megalith"
      },
      "geometry": {
        "type": "Point",
        "coordinates": [
          -2.4454224,
          57.2770533
        ]
      },
      "id": "node/254303043"
    },
    {
      "type": "Feature",
      "properties": {
        "@id": "node/254303044",
        "historic": "archaeological_site",
        "megalith_type": "menhir",
        "site_type": "megalith"
      },
      "geometry": {
        "type": "Point",
        "coordinates": [
          -2.4454955,
          57.2770909
        ]
      },
      "id": "node/254303044"
    },
    {
      "type": "Feature",
      "properties": {
        "@id": "node/254303045",
        "historic": "archaeological_site",
        "megalith_type": "menhir",
        "site_type": "megalith"
      },
      "geometry": {
        "type": "Point",
        "coordinates": [
          -2.4455989,
          57.2770962
        ]
      },
      "id": "node/254303045"
    },
    {
      "type": "Feature",
      "properties": {
        "@id": "node/254303046",
        "historic": "archaeological_site",
        "megalith_type": "menhir",
        "site_type": "megalith"
      },
      "geometry": {
        "type": "Point",
        "coordinates": [
          -2.4456811,
          57.2770688
        ]
      },
      "id": "node/254303046"
    },
    {
      "type": "Feature",
      "properties": {
        "@id": "node/254303047",
        "historic": "archaeological_site",
        "megalith_type": "menhir",
        "site_type": "megalith"
      },
      "geometry": {
        "type": "Point",
        "coordinates": [
          -2.4457152,
          57.2770314
        ]
      },
      "id": "node/254303047"
    },
    {
      "type": "Feature",
      "properties": {
        "@id": "node/254303048",
        "historic": "archaeological_site",
        "megalith_type": "menhir",
        "site_type": "megalith"
      },
      "geometry": {
        "type": "Point",
        "coordinates": [
          -2.4457063,
          57.2769809
        ]
      },
      "id": "node/254303048"
    },
    {
      "type": "Feature",
      "properties": {
        "@id": "node/254303049",
        "historic": "archaeological_site",
        "megalith_type": "menhir",
        "site_type": "megalith"
      },
      "geometry": {
        "type": "Point",
        "coordinates": [
          -2.4456442,
          57.2769416
        ]
      },
      "id": "node/254303049"
    },
    {
      "type": "Feature",
      "properties": {
        "@id": "node/254303050",
        "historic": "archaeological_site",
        "megalith_type": "menhir",
        "site_type": "megalith"
      },
      "geometry": {
        "type": "Point",
        "coordinates": [
          -2.4456248,
          57.2769375
        ]
      },
      "id": "node/254303050"
    },
    {
      "type": "Feature",
      "properties": {
        "@id": "node/254303051",
        "historic": "archaeological_site",
        "megalith_type": "menhir",
        "site_type": "megalith"
      },
      "geometry": {
        "type": "Point",
        "coordinates": [
          -2.445592,
          57.276932
        ]
      },
      "id": "node/254303051"
    },
    {
      "type": "Feature",
      "properties": {
        "@id": "node/254303052",
        "historic": "archaeological_site",
        "megalith_type": "menhir",
        "site_type": "megalith"
      },
      "geometry": {
        "type": "Point",
        "coordinates": [
          -2.4455578,
          57.2769288
        ]
      },
      "id": "node/254303052"
    },
    {
      "type": "Feature",
      "properties": {
        "@id": "node/254303053",
        "historic": "archaeological_site",
        "megalith_type": "menhir",
        "site_type": "megalith"
      },
      "geometry": {
        "type": "Point",
        "coordinates": [
          -2.4454766,
          57.2769423
        ]
      },
      "id": "node/254303053"
    },
    {
      "type": "Feature",
      "properties": {
        "@id": "node/254303054",
        "historic": "archaeological_site",
        "megalith_type": "menhir",
        "site_type": "megalith"
      },
      "geometry": {
        "type": "Point",
        "coordinates": [
          -2.4454262,
          57.2769706
        ]
      },
      "id": "node/254303054"
    },
    {
      "type": "Feature",
      "properties": {
        "@id": "node/255116831",
        "alt_name": "Kit's Coty;Kits Coty House",
        "historic": "archaeological_site",
        "historic:civilization": "prehistoric",
        "historic:era": "neolithic",
        "historic:period": "stone-age",
        "megalith_type": "dolmen",
        "name": "Kit's Coty House",
        "site_type": "megalith",
        "source": "npe",
        "website": "https://www.megalithic.co.uk/article.php?sid=358",
        "wikidata": "Q4222497",
        "wikipedia": "en:Kit's Coty House"
      },
      "geometry": {
        "type": "Point",
        "coordinates": [
          0.5030031,
          51.3198925
        ]
      },
      "id": "node/255116831"
    },
    {
      "type": "Feature",
      "properties": {
        "@id": "node/267257379",
        "height": "3.3",
        "historic": "archaeological_site",
        "megalith_type": "menhir",
        "name": "Clach Mhic Leoid",
        "site_type": "megalith",
        "wikidata": "Q51075812"
      },
      "geometry": {
        "type": "Point",
        "coordinates": [
          -6.9917433,
          57.8658673
        ]
      },
      "id": "node/267257379"
    },
    {
      "type": "Feature",
      "properties": {
        "@id": "node/269182936",
        "alt_name": "Coldrum Stones",
        "historic": "archaeological_site",
        "megalith_type": "long_barrow",
        "name": "Coldrum Longbarrow",
        "site_type": "megalith",
        "wikidata": "Q5142542",
        "wikipedia": "en:Coldrum Stones"
      },
      "geometry": {
        "type": "Point",
        "coordinates": [
          0.3728371,
          51.3215455
        ]
      },
      "id": "node/269182936"
    },
    {
      "type": "Feature",
      "properties": {
        "@id": "node/273466332",
        "historic": "archaeological_site",
        "megalith_type": "stone_circle",
        "name": "Stone Circle",
        "site_type": "megalith"
      },
      "geometry": {
        "type": "Point",
        "coordinates": [
          -1.1560708,
          51.3143821
        ]
      },
      "id": "node/273466332"
    },
    {
      "type": "Feature",
      "properties": {
        "@id": "node/288790478",
        "historic": "archaeological_site",
        "megalith_type": "dolmen",
        "name": "Prehistoric stones",
        "site_type": "megalith",
        "tourism": "attraction"
      },
      "geometry": {
        "type": "Point",
        "coordinates": [
          -5.9498579,
          54.5402017
        ]
      },
      "id": "node/288790478"
    },
    {
      "type": "Feature",
      "properties": {
        "@id": "node/293683834",
        "alt_name": "Eyam Moor I Stone Circle",
        "archaeological_site": "stone_circle",
        "historic": "archaeological_site",
        "megalith_type": "stone_circle",
        "name": "Wet Withens",
        "site_type": "megalith"
      },
      "geometry": {
        "type": "Point",
        "coordinates": [
          -1.6631686,
          53.3074244
        ]
      },
      "id": "node/293683834"
    },
    {
      "type": "Feature",
      "properties": {
        "@id": "node/303571498",
        "alt_name": "Doll Tor",
        "description": "Small 6 stones circle formed part of a larger complex with a ditch, cairn (stone mound) and nearby boulders possibly associated",
        "he:inscription_date": "1956-09-20",
        "heritage": "Scheduled Monument",
        "heritage:operator": "English Heritage",
        "heritage:website": "https://historicengland.org.uk/listing/the-list/list-entry/1017664",
        "historic": "archaeological_site",
        "historic:civilization": "prehistoric",
        "historic:period": "bronze-age",
        "megalith_type": "stone_circle",
        "name": "Doll Tor Stone Circle",
        "official_name": "Doll Tor stone circle and cairn",
        "operator": "Historic England;Peak National Park Authority",
        "ref:he": "1017664",
        "site_type": "megalith",
        "wikidata": "Q5289184",
        "wikipedia": "en:Doll Tor"
      },
      "geometry": {
        "type": "Point",
        "coordinates": [
          -1.6444455,
          53.1627717
        ]
      },
      "id": "node/303571498"
    },
    {
      "type": "Feature",
      "properties": {
        "@id": "node/303571761",
        "historic": "archaeological_site",
        "megalith_type": "stone_circle",
        "name": "Arbor Low",
        "site_type": "megalith",
        "source": "http://pastscape.org.uk/hob.aspx?hob_id=308656",
        "website": "https://www.english-heritage.org.uk/visit/places/arbor-low-stone-circle-and-gib-hill-barrow/",
        "wikidata": "Q630312",
        "wikipedia": "en:Arbor Low"
      },
      "geometry": {
        "type": "Point",
        "coordinates": [
          -1.7615222,
          53.16893
        ]
      },
      "id": "node/303571761"
    },
    {
      "type": "Feature",
      "properties": {
        "@id": "node/309208716",
        "historic": "archaeological_site",
        "megalith_type": "menhir",
        "name": "standing stone",
        "site_type": "megalith"
      },
      "geometry": {
        "type": "Point",
        "coordinates": [
          -3.4703904,
          56.4736797
        ]
      },
      "id": "node/309208716"
    },
    {
      "type": "Feature",
      "properties": {
        "@id": "node/330256623",
        "historic": "archaeological_site",
        "megalith_type": "stone_circle",
        "name": "Yellow Mead Stone Circle",
        "site_type": "megalith",
        "source": "NPE"
      },
      "geometry": {
        "type": "Point",
        "coordinates": [
          -4.0105187,
          50.492864
        ]
      },
      "id": "node/330256623"
    },
    {
      "type": "Feature",
      "properties": {
        "@id": "node/330279711",
        "historic": "archaeological_site",
        "megalith_type": "stone_circle",
        "site_type": "megalith",
        "source": "NPE"
      },
      "geometry": {
        "type": "Point",
        "coordinates": [
          -3.9129366,
          50.6801861
        ]
      },
      "id": "node/330279711"
    },
    {
      "type": "Feature",
      "properties": {
        "@id": "node/330373140",
        "HE_ref": "1008195",
        "description": "Prehistoric monument",
        "heritage": "yes",
        "historic": "archaeological_site",
        "historic:civilization": "prehistoric",
        "historic:era": "neolithic",
        "historic:period": "stone-age",
        "listed_status": "scheduled_monument",
        "loc_name": "Hetty Pegler's Tump",
        "megalith_type": "dolmen",
        "name": "Uley Long Barrow",
        "note": "The popular name for this site is Hetty Pegler's Tump. Typically described as a long barrow, the mound is actually a trancepted gallery grave.",
        "note:ref": "en wikipedia page",
        "site_type": "megalith",
        "source": "NPE",
        "wikidata": "Q2474714",
        "wikipedia": "en:Uley Long Barrow"
      },
      "geometry": {
        "type": "Point",
        "coordinates": [
          -2.3059025,
          51.698652
        ]
      },
      "id": "node/330373140"
    },
    {
      "type": "Feature",
      "properties": {
        "@id": "node/349938535",
        "heritage": "yes",
        "historic": "archaeological_site",
        "site_type": "megalith",
        "wikidata": "Q56661567"
      },
      "geometry": {
        "type": "Point",
        "coordinates": [
          -3.399796,
          55.938759
        ]
      },
      "id": "node/349938535"
    },
    {
      "type": "Feature",
      "properties": {
        "@id": "node/350563465",
        "historic": "archaeological_site",
        "site_type": "megalith"
      },
      "geometry": {
        "type": "Point",
        "coordinates": [
          -3.4051984,
          55.9380963
        ]
      },
      "id": "node/350563465"
    },
    {
      "type": "Feature",
      "properties": {
        "@id": "node/350563518",
        "historic": "archaeological_site",
        "site_type": "megalith"
      },
      "geometry": {
        "type": "Point",
        "coordinates": [
          -3.4040472,
          55.9385221
        ]
      },
      "id": "node/350563518"
    },
    {
      "type": "Feature",
      "properties": {
        "@id": "node/350563635",
        "historic": "archaeological_site",
        "site_type": "megalith"
      },
      "geometry": {
        "type": "Point",
        "coordinates": [
          -3.4052874,
          55.9386848
        ]
      },
      "id": "node/350563635"
    },
    {
      "type": "Feature",
      "properties": {
        "@id": "node/351732765",
        "historic": "archaeological_site",
        "name": "Standing Stone",
        "site_type": "megalith",
        "wikidata": "Q56661328"
      },
      "geometry": {
        "type": "Point",
        "coordinates": [
          -3.3233291,
          55.9579939
        ]
      },
      "id": "node/351732765"
    },
    {
      "type": "Feature",
      "properties": {
        "@id": "node/352955479",
        "historic": "archaeological_site",
        "megalith_type": "stone_circle",
        "name": "stone circle",
        "site_type": "megalith",
        "source": "OS 1:25000"
      },
      "geometry": {
        "type": "Point",
        "coordinates": [
          -2.730055,
          54.5668861
        ]
      },
      "id": "node/352955479"
    },
    {
      "type": "Feature",
      "properties": {
        "@id": "node/361130854",
        "heritage": "2",
        "heritage:operator": "he",
        "heritage:website": "https://historicengland.org.uk/listing/the-list/list-entry/1018094",
        "historic": "archaeological_site",
        "historic:civilization": "prehistoric",
        "megalith_type": "stone_circle",
        "name": "Hordron Edge Stone Circle",
        "ref:he": "1018094",
        "site_type": "megalith",
        "source": "NPE",
        "wikidata": "Q17664137"
      },
      "geometry": {
        "type": "Point",
        "coordinates": [
          -1.6779289,
          53.3781117
        ]
      },
      "id": "node/361130854"
    },
    {
      "type": "Feature",
      "properties": {
        "@id": "node/370206805",
        "heritage": "yes",
        "historic": "archaeological_site",
        "historic:civilization": "prehistoric",
        "material": "stone",
        "megalith_type": "long_barrow",
        "name": "West Kennet Long Barrow",
        "site_type": "megalith",
        "wikidata": "Q541312"
      },
      "geometry": {
        "type": "Point",
        "coordinates": [
          -1.8504375,
          51.4086455
        ]
      },
      "id": "node/370206805"
    },
    {
      "type": "Feature",
      "properties": {
        "@id": "node/370277720",
        "alt_name": "Maughanby Circle;Maughan Stone Circle",
        "historic": "archaeological_site",
        "historic:civilization": "prehistoric",
        "historic:period": "bronze-age",
        "material": "stone",
        "megalith_type": "stone_circle",
        "name": "Little Meg",
        "site_type": "megalith",
        "website": "http://www.stone-circles.org.uk/stone/littlemeg.htm",
        "wikidata": "Q11689326"
      },
      "geometry": {
        "type": "Point",
        "coordinates": [
          -2.6584985,
          54.7305093
        ]
      },
      "id": "node/370277720"
    },
    {
      "type": "Feature",
      "properties": {
        "@id": "node/411731891",
        "alt_name": "Kirkstones",
        "description": "Possible stone circle or ruined cairn. Listed monument but destroyed by landowner.",
        "historic": "archaeological_site",
        "megalith_type": "stone_circle",
        "name": "Brass Castle",
        "site_type": "megalith",
        "source": "NPE;OS 1:25000",
        "url": "http://www.megalithic.co.uk/article.php?mapref=SE089439"
      },
      "geometry": {
        "type": "Point",
        "coordinates": [
          -1.8663468,
          53.8919019
        ]
      },
      "id": "node/411731891"
    },
    {
      "type": "Feature",
      "properties": {
        "@id": "node/411749424",
        "historic": "archaeological_site",
        "historic:civilization": "prehistoric",
        "historic:era": "neolithic",
        "historic:period": "stone_age",
        "megalith_type": "stone_circle",
        "name": "Machrie Moor Stone Circle 2",
        "site_type": "megalith"
      },
      "geometry": {
        "type": "Point",
        "coordinates": [
          -5.3119322,
          55.5406772
        ]
      },
      "id": "node/411749424"
    },
    {
      "type": "Feature",
      "properties": {
        "@id": "node/411751090",
        "historic": "archaeological_site",
        "historic:civilization": "prehistoric",
        "historic:era": "neolithic",
        "historic:period": "stone_age",
        "megalith_type": "stone_circle",
        "name": "Machrie Moor Stone Circle 3",
        "site_type": "megalith"
      },
      "geometry": {
        "type": "Point",
        "coordinates": [
          -5.3138729,
          55.5409166
        ]
      },
      "id": "node/411751090"
    },
    {
      "type": "Feature",
      "properties": {
        "@id": "node/411934242",
        "historic": "archaeological_site",
        "megalith_type": "long_barrow",
        "name": "The Camp Long Barrow",
        "site_type": "megalith",
        "source": "NPE + local knowledge",
        "wikidata": "Q17645976"
      },
      "geometry": {
        "type": "Point",
        "coordinates": [
          -2.1263887,
          51.7799607
        ]
      },
      "id": "node/411934242"
    },
    {
      "type": "Feature",
      "properties": {
        "@id": "node/415979070",
        "heritage": "yes",
        "historic": "archaeological_site",
        "material": "stone",
        "megalith_type": "dolmen",
        "name": "Legananny Dolmen",
        "site_type": "megalith",
        "source": "http://www.geographyinaction.co.uk/Assets/Photo_albums/Eleven/pages/Legananny%20Dolmen.html",
        "wikidata": "Q6517664"
      },
      "geometry": {
        "type": "Point",
        "coordinates": [
          -6.020174,
          54.3230479
        ]
      },
      "id": "node/415979070"
    },
    {
      "type": "Feature",
      "properties": {
        "@id": "node/416391268",
        "HE_ref": "1002129",
        "historic": "archaeological_site",
        "listed_status": "scheduled_monument",
        "megalith_type": "long_barrow",
        "name": "Coberley Long Barrow",
        "site_type": "megalith",
        "source": "NLS-OS-1st_Series",
        "wikidata": "Q17645982"
      },
      "geometry": {
        "type": "Point",
        "coordinates": [
          -2.0660954,
          51.839317
        ]
      },
      "id": "node/416391268"
    },
    {
      "type": "Feature",
      "properties": {
        "@id": "node/416851692",
        "historic": "archaeological_site",
        "megalith_type": "long_barrow",
        "site_type": "megalith",
        "wikidata": "Q17650529"
      },
      "geometry": {
        "type": "Point",
        "coordinates": [
          -2.1698533,
          51.696322
        ]
      },
      "id": "node/416851692"
    },
    {
      "type": "Feature",
      "properties": {
        "@id": "node/420302716",
        "description": "Long Barrow",
        "historic": "archaeological_site",
        "megalith_type": "long_barrow",
        "site_type": "megalith",
        "source": "NPE"
      },
      "geometry": {
        "type": "Point",
        "coordinates": [
          -2.0520507,
          51.7579818
        ]
      },
      "id": "node/420302716"
    },
    {
      "type": "Feature",
      "properties": {
        "@id": "node/420302718",
        "historic": "archaeological_site",
        "megalith_type": "long_barrow",
        "site_type": "megalith",
        "source": "NPE"
      },
      "geometry": {
        "type": "Point",
        "coordinates": [
          -2.1006309,
          51.7559044
        ]
      },
      "id": "node/420302718"
    },
    {
      "type": "Feature",
      "properties": {
        "@id": "node/420302721",
        "description": "Long Barrow",
        "historic": "archaeological_site",
        "megalith_type": "long_barrow",
        "site_type": "megalith",
        "source": "NPE"
      },
      "geometry": {
        "type": "Point",
        "coordinates": [
          -2.1305435,
          51.7655041
        ]
      },
      "id": "node/420302721"
    },
    {
      "type": "Feature",
      "properties": {
        "@id": "node/420302727",
        "historic": "archaeological_site",
        "megalith_type": "long_barrow",
        "name": "Jack Barrow",
        "site_type": "megalith",
        "source": "NPE"
      },
      "geometry": {
        "type": "Point",
        "coordinates": [
          -2.0629188,
          51.7632815
        ]
      },
      "id": "node/420302727"
    },
    {
      "type": "Feature",
      "properties": {
        "@id": "node/429218326",
        "historic": "archaeological_site",
        "megalith_type": "long_barrow",
        "site_type": "megalith"
      },
      "geometry": {
        "type": "Point",
        "coordinates": [
          -4.6444055,
          50.6632732
        ]
      },
      "id": "node/429218326"
    },
    {
      "type": "Feature",
      "properties": {
        "@id": "node/429237001",
        "historic": "archaeological_site",
        "megalith_type": "long_barrow",
        "name": "Slay Barrow",
        "site_type": "megalith"
      },
      "geometry": {
        "type": "Point",
        "coordinates": [
          -1.8761663,
          51.2595222
        ]
      },
      "id": "node/429237001"
    },
    {
      "type": "Feature",
      "properties": {
        "@id": "node/429890631",
        "historic": "archaeological_site",
        "megalith_type": "long_barrow",
        "site_type": "megalith"
      },
      "geometry": {
        "type": "Point",
        "coordinates": [
          -1.8378224,
          51.2190737
        ]
      },
      "id": "node/429890631"
    },
    {
      "type": "Feature",
      "properties": {
        "@id": "node/429897673",
        "historic": "archaeological_site",
        "megalith_type": "long_barrow",
        "site_type": "megalith"
      },
      "geometry": {
        "type": "Point",
        "coordinates": [
          -1.8184178,
          51.2071181
        ]
      },
      "id": "node/429897673"
    },
    {
      "type": "Feature",
      "properties": {
        "@id": "node/429898154",
        "historic": "archaeological_site",
        "megalith_type": "long_barrow",
        "site_type": "megalith"
      },
      "geometry": {
        "type": "Point",
        "coordinates": [
          -1.7297187,
          51.2127834
        ]
      },
      "id": "node/429898154"
    },
    {
      "type": "Feature",
      "properties": {
        "@id": "node/430039104",
        "HE_ref": "1009157",
        "description": "Long Barrow",
        "historic": "archaeological_site",
        "listed_status": "scheduled_monument",
        "megalith_type": "long_barrow",
        "name": "Notgrove Long Barrow",
        "site_type": "megalith",
        "source": "NPE",
        "source:name": "survey",
        "wikidata": "Q7062649"
      },
      "geometry": {
        "type": "Point",
        "coordinates": [
          -1.8621354,
          51.8893324
        ]
      },
      "id": "node/430039104"
    },
    {
      "type": "Feature",
      "properties": {
        "@id": "node/430106185",
        "historic": "archaeological_site",
        "is_in:county": "Cumbria",
        "megalith_type": "stone_circle",
        "name": "Grey Yauds",
        "site_type": "megalith",
        "source": "NLS - OS 1:25k 1st Series 1937-61"
      },
      "geometry": {
        "type": "Point",
        "coordinates": [
          -2.7100364,
          54.8307668
        ]
      },
      "id": "node/430106185"
    },
    {
      "type": "Feature",
      "properties": {
        "@id": "node/442351424",
        "historic": "archaeological_site",
        "megalith_type": "long_barrow",
        "site_type": "megalith",
        "source": "NPE"
      },
      "geometry": {
        "type": "Point",
        "coordinates": [
          -1.9029294,
          51.7738933
        ]
      },
      "id": "node/442351424"
    },
    {
      "type": "Feature",
      "properties": {
        "@id": "node/444767686",
        "historic": "archaeological_site",
        "megalith_type": "long_barrow",
        "name": "Hangman's Barrow",
        "site_type": "megalith"
      },
      "geometry": {
        "type": "Point",
        "coordinates": [
          -5.2608155,
          50.1840336
        ]
      },
      "id": "node/444767686"
    },
    {
      "type": "Feature",
      "properties": {
        "@id": "node/445091081",
        "historic": "archaeological_site",
        "megalith_type": "long_barrow",
        "site_type": "megalith"
      },
      "geometry": {
        "type": "Point",
        "coordinates": [
          -2.1821429,
          51.2226746
        ]
      },
      "id": "node/445091081"
    },
    {
      "type": "Feature",
      "properties": {
        "@id": "node/445098750",
        "historic": "archaeological_site",
        "megalith_type": "long_barrow",
        "site_type": "megalith"
      },
      "geometry": {
        "type": "Point",
        "coordinates": [
          -2.0889096,
          51.2706145
        ]
      },
      "id": "node/445098750"
    },
    {
      "type": "Feature",
      "properties": {
        "@id": "node/445098755",
        "historic": "archaeological_site",
        "megalith_type": "long_barrow",
        "site_type": "megalith"
      },
      "geometry": {
        "type": "Point",
        "coordinates": [
          -2.0844419,
          51.220027
        ]
      },
      "id": "node/445098755"
    },
    {
      "type": "Feature",
      "properties": {
        "@id": "node/445098758",
        "historic": "archaeological_site",
        "megalith_type": "long_barrow",
        "site_type": "megalith"
      },
      "geometry": {
        "type": "Point",
        "coordinates": [
          -2.109101,
          51.1969185
        ]
      },
      "id": "node/445098758"
    },
    {
      "type": "Feature",
      "properties": {
        "@id": "node/445363162",
        "historic": "archaeological_site",
        "megalith_type": "long_barrow",
        "site_type": "megalith"
      },
      "geometry": {
        "type": "Point",
        "coordinates": [
          -1.8524754,
          51.1697841
        ]
      },
      "id": "node/445363162"
    },
    {
      "type": "Feature",
      "properties": {
        "@id": "node/445416451",
        "historic": "archaeological_site",
        "megalith_type": "long_barrow",
        "site_type": "megalith"
      },
      "geometry": {
        "type": "Point",
        "coordinates": [
          -1.7851252,
          51.1876025
        ]
      },
      "id": "node/445416451"
    },
    {
      "type": "Feature",
      "properties": {
        "@id": "node/445416452",
        "historic": "archaeological_site",
        "megalith_type": "long_barrow",
        "site_type": "megalith"
      },
      "geometry": {
        "type": "Point",
        "coordinates": [
          -1.7671866,
          51.1864189
        ]
      },
      "id": "node/445416452"
    },
    {
      "type": "Feature",
      "properties": {
        "@id": "node/447584459",
        "access": "private",
        "historic": "archaeological_site",
        "megalith_type": "long_barrow",
        "name": "Neale's Barrow",
        "site_type": "megalith"
      },
      "geometry": {
        "type": "Point",
        "coordinates": [
          -1.8831807,
          51.0586669
        ]
      },
      "id": "node/447584459"
    },
    {
      "type": "Feature",
      "properties": {
        "@id": "node/447584460",
        "historic": "archaeological_site",
        "megalith_type": "long_barrow",
        "name": "Lyons Borrow",
        "site_type": "megalith"
      },
      "geometry": {
        "type": "Point",
        "coordinates": [
          -1.9062227,
          51.0624137
        ]
      },
      "id": "node/447584460"
    },
    {
      "type": "Feature",
      "properties": {
        "@id": "node/447995537",
        "historic": "archaeological_site",
        "megalith_type": "stone_circle",
        "name": "Stone Circle",
        "site_type": "megalith"
      },
      "geometry": {
        "type": "Point",
        "coordinates": [
          -2.6687911,
          54.5132161
        ]
      },
      "id": "node/447995537"
    },
    {
      "type": "Feature",
      "properties": {
        "@id": "node/466485123",
        "historic": "archaeological_site",
        "megalith_type": "long_barrow",
        "site_type": "megalith",
        "source": "NPE"
      },
      "geometry": {
        "type": "Point",
        "coordinates": [
          -2.2029769,
          51.6790827
        ]
      },
      "id": "node/466485123"
    },
    {
      "type": "Feature",
      "properties": {
        "@id": "node/479591220",
        "historic": "archaeological_site",
        "megalith_type": "long_barrow",
        "site_type": "megalith",
        "source": "OS 1:25k"
      },
      "geometry": {
        "type": "Point",
        "coordinates": [
          -1.807199,
          51.9574144
        ]
      },
      "id": "node/479591220"
    },
    {
      "type": "Feature",
      "properties": {
        "@id": "node/479986476",
        "historic": "archaeological_site",
        "megalith_type": "stone_circle",
        "name": "Stone Circle",
        "site_type": "megalith",
        "source": "gps survey"
      },
      "geometry": {
        "type": "Point",
        "coordinates": [
          -1.9471281,
          54.3739606
        ]
      },
      "id": "node/479986476"
    },
    {
      "type": "Feature",
      "properties": {
        "@id": "node/481194732",
        "historic": "archaeological_site",
        "megalith_type": "long_barrow",
        "site_type": "megalith",
        "source": "OS 1:25k"
      },
      "geometry": {
        "type": "Point",
        "coordinates": [
          -2.0939447,
          51.7476891
        ]
      },
      "id": "node/481194732"
    },
    {
      "type": "Feature",
      "properties": {
        "@id": "node/485354347",
        "historic": "archaeological_site",
        "megalith_type": "long_barrow",
        "name": "Westwood Long Barrow",
        "site_type": "megalith",
        "source": "OS 1:25k + Bing",
        "wikidata": "Q17674593"
      },
      "geometry": {
        "type": "Point",
        "coordinates": [
          -2.0937861,
          51.7461184
        ]
      },
      "id": "node/485354347"
    },
    {
      "type": "Feature",
      "properties": {
        "@id": "node/486819820",
        "historic": "archaeological_site",
        "megalith_type": "long_barrow",
        "site_type": "megalith",
        "source": "NPE"
      },
      "geometry": {
        "type": "Point",
        "coordinates": [
          -1.8217507,
          51.8376005
        ]
      },
      "id": "node/486819820"
    },
    {
      "type": "Feature",
      "properties": {
        "@id": "node/486819821",
        "historic": "archaeological_site",
        "megalith_type": "long_barrow",
        "name": "Burn Ground",
        "site_type": "megalith",
        "source": "NPE"
      },
      "geometry": {
        "type": "Point",
        "coordinates": [
          -1.8501607,
          51.842771
        ]
      },
      "id": "node/486819821"
    },
    {
      "type": "Feature",
      "properties": {
        "@id": "node/486819822",
        "HE_ref": "1003349",
        "historic": "archaeological_site",
        "listed_status": "scheduled_monument",
        "megalith_type": "long_barrow",
        "site_type": "megalith",
        "source": "NPE"
      },
      "geometry": {
        "type": "Point",
        "coordinates": [
          -1.8770686,
          51.8414453
        ]
      },
      "id": "node/486819822"
    },
    {
      "type": "Feature",
      "properties": {
        "@id": "node/495560714",
        "historic": "archaeological_site",
        "historic:civilization": "prehistoric",
        "historic:era": "neolithic_1;neolithic_2",
        "historic:period": "stone-age",
        "megalith_type": "dolmen",
        "name": "Whispering Knights",
        "site_type": "megalith",
        "tourism": "attraction"
      },
      "geometry": {
        "type": "Point",
        "coordinates": [
          -1.5655811,
          51.9752632
        ]
      },
      "id": "node/495560714"
    },
    {
      "type": "Feature",
      "properties": {
        "@id": "node/503390741",
        "historic": "archaeological_site",
        "megalith_type": "passage_grave",
        "name": "Wideford Hill",
        "site_type": "megalith"
      },
      "geometry": {
        "type": "Point",
        "coordinates": [
          -3.03021,
          58.9919178
        ]
      },
      "id": "node/503390741"
    },
    {
      "type": "Feature",
      "properties": {
        "@id": "node/503420302",
        "description": "Cuween Hill Chambered Cairn illustrates the sophistication of life among Scotland’s earliest agricultural communities. It’s a fine example of Neolithic architectural design, with evidence of complex burial rites. ",
        "historic": "archaeological_site",
        "megalith_type": "passage_grave",
        "name": "Cuween Hill",
        "opening_hours:url": "https://www.historicenvironment.scot/visit-a-place/places/cuween-hill-chambered-cairn/prices-and-opening-times/",
        "site_type": "megalith",
        "tourism": "yes",
        "website": "https://www.historicenvironment.scot/visit-a-place/places/cuween-hill-chambered-cairn/",
        "wikidata": "Q1146656"
      },
      "geometry": {
        "type": "Point",
        "coordinates": [
          -3.1081438,
          58.9973439
        ]
      },
      "id": "node/503420302"
    },
    {
      "type": "Feature",
      "properties": {
        "@id": "node/503697602",
        "alt_name": "Porth Hellick Down",
        "heritage": "2",
        "heritage:operator": "he",
        "heritage:website": "https://historicengland.org.uk/listing/the-list/list-entry/1011950",
        "historic": "archaeological_site",
        "historic:civilization": "prehistoric",
        "historic:period": "bronze-age",
        "material": "stone",
        "megalith_type": "dolmen",
        "name": "Porth Hellick Down Burial Chamber",
        "ref:he": "1011950",
        "site_type": "megalith",
        "website": "https://www.english-heritage.org.uk/visit/places/porth-hellick-down-burial-chamber",
        "wikidata": "Q17675904"
      },
      "geometry": {
        "type": "Point",
        "coordinates": [
          -6.280577,
          49.9186812
        ]
      },
      "id": "node/503697602"
    },
    {
      "type": "Feature",
      "properties": {
        "@id": "node/524633920",
        "historic": "archaeological_site",
        "megalith_type": "long_barrow",
        "name": "Long Barrow",
        "site_type": "megalith"
      },
      "geometry": {
        "type": "Point",
        "coordinates": [
          -1.7759409,
          51.3894765
        ]
      },
      "id": "node/524633920"
    },
    {
      "type": "Feature",
      "properties": {
        "@id": "node/524635641",
        "historic": "archaeological_site",
        "megalith_type": "long_barrow",
        "name": "East Kennett Long Barrow",
        "site_type": "megalith",
        "wikidata": "Q17670550"
      },
      "geometry": {
        "type": "Point",
        "coordinates": [
          -1.8342199,
          51.4006157
        ]
      },
      "id": "node/524635641"
    },
    {
      "type": "Feature",
      "properties": {
        "@id": "node/533565089",
        "historic": "archaeological_site",
        "megalith_type": "stone_circle",
        "name": "ring of stones",
        "site_type": "megalith",
        "source": "OS 1:25k"
      },
      "geometry": {
        "type": "Point",
        "coordinates": [
          -1.9341893,
          53.6607968
        ]
      },
      "id": "node/533565089"
    },
    {
      "type": "Feature",
      "properties": {
        "@id": "node/560123612",
        "historic": "archaeological_site",
        "name": "Standing Stone",
        "site_type": "megalith"
      },
      "geometry": {
        "type": "Point",
        "coordinates": [
          -3.9929703,
          50.485219
        ]
      },
      "id": "node/560123612"
    },
    {
      "type": "Feature",
      "properties": {
        "@id": "node/568478319",
        "historic": "archaeological_site",
        "megalith_type": "menhir",
        "name": "Three Boys",
        "site_type": "megalith",
        "wheelchair": "no",
        "wpt_symbol": "Dot"
      },
      "geometry": {
        "type": "Point",
        "coordinates": [
          -3.8969785,
          50.6536374
        ]
      },
      "id": "node/568478319"
    },
    {
      "type": "Feature",
      "properties": {
        "@id": "node/568478338",
        "historic": "archaeological_site",
        "historic:civilization": "prehistoric",
        "historic:period": "bronze-age",
        "megalith_type": "stone_circle",
        "name": "Grey Wethers",
        "site_type": "megalith",
        "source": "Bing",
        "website": "https://www.megalithic.co.uk/article.php?x=263950&y=83150",
        "wikidata": "Q5608259",
        "wikipedia": "en:Grey Wethers"
      },
      "geometry": {
        "type": "Point",
        "coordinates": [
          -3.9262008,
          50.6319583
        ]
      },
      "id": "node/568478338"
    },
    {
      "type": "Feature",
      "properties": {
        "@id": "node/568478366",
        "alt_name": "Cosdon Stone Row;The Graveyard;Cosdon Hill Triple Stone Row",
        "description": "Triple stone alignment and cairn 780m east of Cawsand Beacon",
        "fixme": "exact location tbc",
        "historic": "archaeological_site",
        "megalith_type": "alignment",
        "name": "Cosdon Hill Multiple Stone Rows",
        "site_type": "megalith",
        "website": "http://www.dartmoorwalks.org.uk/resource/site.php?SiteID=133",
        "wikidata": "Q2411722",
        "wpt_symbol": "Dot"
      },
      "geometry": {
        "type": "Point",
        "coordinates": [
          -3.922664,
          50.708073
        ]
      },
      "id": "node/568478366"
    },
    {
      "type": "Feature",
      "properties": {
        "@id": "node/571597955",
        "historic": "archaeological_site",
        "megalith_type": "cairn",
        "name": "Cairn circle",
        "site_type": "megalith",
        "wpt_symbol": "Dot"
      },
      "geometry": {
        "type": "Point",
        "coordinates": [
          -3.9718473,
          50.7108882
        ]
      },
      "id": "node/571597955"
    },
    {
      "type": "Feature",
      "properties": {
        "@id": "node/571598054",
        "historic": "archaeological_site",
        "megalith_type": "menhir",
        "name": "Merrivale Standing Stone",
        "site_type": "megalith",
        "source": "survey"
      },
      "geometry": {
        "type": "Point",
        "coordinates": [
          -4.0432097,
          50.5531397
        ]
      },
      "id": "node/571598054"
    },
    {
      "type": "Feature",
      "properties": {
        "@id": "node/571622983",
        "alt_name": "Harolds Stones (Trellech);Harold Stones;Harolds Stones",
        "historic": "archaeological_site",
        "historic:civilization": "prehistoric",
        "historic:period": "bronze-age",
        "loc_name": "Trellech;Triligh;Trelleck Stones",
        "material": "stone",
        "megalith_type": "alignment",
        "name": "Harold's Stones",
        "site_type": "megalith",
        "source": "NPE",
        "wikidata": "Q20600396",
        "wikipedia": "de:Harold’s Stones"
      },
      "geometry": {
        "type": "Point",
        "coordinates": [
          -2.7265844,
          51.742772
        ]
      },
      "id": "node/571622983"
    },
    {
      "type": "Feature",
      "properties": {
        "@id": "node/600206371",
        "heritage": "yes",
        "historic": "archaeological_site",
        "megalith_type": "dolmen",
        "name": "Lanyon Quoit",
        "site_type": "megalith",
        "tourism": "attraction",
        "url": "http://en.wikipedia.org/wiki/Lanyon_Quoit",
        "wikidata": "Q1725167",
        "wikipedia": "en:Lanyon Quoit"
      },
      "geometry": {
        "type": "Point",
        "coordinates": [
          -5.5990624,
          50.147356
        ]
      },
      "id": "node/600206371"
    },
    {
      "type": "Feature",
      "properties": {
        "@id": "node/615849847",
        "description": "Standing Stones, access permitted without fee through gh property of Langass Lodge, make sure to close the gates again after you",
        "historic": "archaeological_site",
        "megalith_type": "stone_circle",
        "name": "Pobull Fhinn",
        "site_type": "megalith",
        "tourism": "attraction",
        "website": "http://canmore.org.uk/site/10237/north-uist-ben-langass-pobull-fhinn",
        "wikidata": "Q1641102",
        "wikipedia": "en:Pobull Fhinn"
      },
      "geometry": {
        "type": "Point",
        "coordinates": [
          -7.2821277,
          57.5644427
        ]
      },
      "id": "node/615849847"
    },
    {
      "type": "Feature",
      "properties": {
        "@id": "node/635108442",
        "historic": "archaeological_site",
        "megalith_type": "stone_circle",
        "name": "Hampton Down Stone Circle",
        "site_type": "megalith",
        "website": "https://www.megalithic.co.uk/article.php?sid=973",
        "wikidata": "Q27868401"
      },
      "geometry": {
        "type": "Point",
        "coordinates": [
          -2.5730097,
          50.6767943
        ]
      },
      "id": "node/635108442"
    },
    {
      "type": "Feature",
      "properties": {
        "@id": "node/642994328",
        "historic": "archaeological_site",
        "megalith_type": "menhir",
        "name": "Mên Scryfa",
        "site_type": "megalith",
        "tourism": "attraction",
        "wikidata": "Q15949914"
      },
      "geometry": {
        "type": "Point",
        "coordinates": [
          -5.6041098,
          50.1617386
        ]
      },
      "id": "node/642994328"
    },
    {
      "type": "Feature",
      "properties": {
        "@id": "node/659578655",
        "alt_name": "Beardown Man standing stone",
        "historic": "archaeological_site",
        "historic:civilization": "prehistoric",
        "megalith_type": "menhir",
        "name": "Beardown Man",
        "site_type": "megalith",
        "wikidata": "Q17646064"
      },
      "geometry": {
        "type": "Point",
        "coordinates": [
          -3.9850724,
          50.5994616
        ]
      },
      "id": "node/659578655"
    },
    {
      "type": "Feature",
      "properties": {
        "@id": "node/678580252",
        "historic": "archaeological_site",
        "megalith_type": "stone_circle",
        "name": "Stone circle",
        "site_type": "megalith"
      },
      "geometry": {
        "type": "Point",
        "coordinates": [
          -1.8880576,
          53.8443524
        ]
      },
      "id": "node/678580252"
    },
    {
      "type": "Feature",
      "properties": {
        "@id": "node/688008027",
        "historic": "archaeological_site",
        "megalith_type": "menhir",
        "site_type": "megalith"
      },
      "geometry": {
        "type": "Point",
        "coordinates": [
          -2.8482165,
          51.2890122
        ]
      },
      "id": "node/688008027"
    },
    {
      "type": "Feature",
      "properties": {
        "@id": "node/694309185",
        "historic": "archaeological_site",
        "megalith_type": "dolmen",
        "name": "Ryedown Stone",
        "site_type": "megalith"
      },
      "geometry": {
        "type": "Point",
        "coordinates": [
          -4.6657268,
          50.5518627
        ]
      },
      "id": "node/694309185"
    },
    {
      "type": "Feature",
      "properties": {
        "@id": "node/694426889",
        "historic": "archaeological_site",
        "megalith_type": "chamber",
        "name": "Penmaen Burrows Megalith Chamber (Pen-y-crug)",
        "site_type": "megalith"
      },
      "geometry": {
        "type": "Point",
        "coordinates": [
          -4.120342,
          51.5727772
        ]
      },
      "id": "node/694426889"
    },
    {
      "type": "Feature",
      "properties": {
        "@id": "node/721573432",
        "historic": "archaeological_site",
        "megalith_type": "menhir",
        "name": "Living Rock",
        "site_type": "megalith"
      },
      "geometry": {
        "type": "Point",
        "coordinates": [
          -2.7025977,
          51.1430166
        ]
      },
      "id": "node/721573432"
    },
    {
      "type": "Feature",
      "properties": {
        "@id": "node/736707380",
        "historic": "archaeological_site",
        "megalith_type": "menhir",
        "site_type": "megalith",
        "source": "OS OpenData StreetView"
      },
      "geometry": {
        "type": "Point",
        "coordinates": [
          -3.7638908,
          50.9658741
        ]
      },
      "id": "node/736707380"
    },
    {
      "type": "Feature",
      "properties": {
        "@id": "node/736707884",
        "historic": "archaeological_site",
        "megalith_type": "menhir",
        "site_type": "megalith",
        "source": "OS OpenData StreetView"
      },
      "geometry": {
        "type": "Point",
        "coordinates": [
          -3.7640625,
          50.9654958
        ]
      },
      "id": "node/736707884"
    },
    {
      "type": "Feature",
      "properties": {
        "@id": "node/812166158",
        "alt_name": "Parc Cwm Long Cairn;Parc Cwm;Parc le Breos;Park Le Bruce;Parc Breos Cwm",
        "historic": "archaeological_site",
        "megalith_type": "tholos",
        "name": "Parc le Breos Burial Chamber",
        "ruins": "yes",
        "site_type": "megalith",
        "wikidata": "Q2052501",
        "wikipedia": "en:Parc Cwm long cairn"
      },
      "geometry": {
        "type": "Point",
        "coordinates": [
          -4.1127037,
          51.5883747
        ]
      },
      "id": "node/812166158"
    },
    {
      "type": "Feature",
      "properties": {
        "@id": "node/943248937",
        "historic": "archaeological_site",
        "megalith_type": "menhir",
        "name": "Loughtor Man",
        "opening_hours": "24/7",
        "site_type": "megalith",
        "source": "Bing"
      },
      "geometry": {
        "type": "Point",
        "coordinates": [
          -3.9043439,
          50.5625886
        ]
      },
      "id": "node/943248937"
    },
    {
      "type": "Feature",
      "properties": {
        "@id": "node/1020504876",
        "alt_name": "Barbrook One Stone Circle;Barbrook No. 1;Barbrook I Stone Circle",
        "historic": "archaeological_site",
        "historic:civilization": "prehistoric",
        "megalith_type": "stone_circle",
        "name": "Barbrook One",
        "site_type": "megalith",
        "wikidata": "Q14949367",
        "wikipedia": "en:Barbrook One"
      },
      "geometry": {
        "type": "Point",
        "coordinates": [
          -1.583697,
          53.2764888
        ]
      },
      "id": "node/1020504876"
    },
    {
      "type": "Feature",
      "properties": {
        "@id": "node/1109457338",
        "historic": "archaeological_site",
        "megalith_type": "stone_circle",
        "name": "T62 stone circle",
        "site_type": "megalith"
      },
      "geometry": {
        "type": "Point",
        "coordinates": [
          -1.6284072,
          53.1696322
        ]
      },
      "id": "node/1109457338"
    },
    {
      "type": "Feature",
      "properties": {
        "@id": "node/1119647194",
        "ele": "332.499268",
        "historic": "archaeological_site",
        "megalith_type": "stone_circle",
        "name": "Merrivale Stone Circle",
        "site_type": "megalith",
        "source": "survey"
      },
      "geometry": {
        "type": "Point",
        "coordinates": [
          -4.0431621,
          50.553536
        ]
      },
      "id": "node/1119647194"
    },
    {
      "type": "Feature",
      "properties": {
        "@id": "node/1119648572",
        "ele": "332.979858",
        "historic": "archaeological_site",
        "megalith_type": "cist",
        "name": "Cist",
        "site_type": "megalith",
        "source": "survey"
      },
      "geometry": {
        "type": "Point",
        "coordinates": [
          -4.0432851,
          50.5544116
        ]
      },
      "id": "node/1119648572"
    },
    {
      "type": "Feature",
      "properties": {
        "@id": "node/1119649454",
        "ele": "331.537842",
        "historic": "archaeological_site",
        "megalith_type": "cist",
        "name": "Cist",
        "site_type": "megalith",
        "wpt_description": "23-JAN-11 17:07:06"
      },
      "geometry": {
        "type": "Point",
        "coordinates": [
          -4.0420981,
          50.5547564
        ]
      },
      "id": "node/1119649454"
    },
    {
      "type": "Feature",
      "properties": {
        "@id": "node/1119651132",
        "ele": "341.871948",
        "historic": "archaeological_site",
        "megalith_type": "menhir",
        "name": "T-A Boundary Stone",
        "note": "May be ancient or merely old - T & A carving suggests a Tavistock / Ashburton stannary boundary or way stone.",
        "site_type": "megalith",
        "wpt_description": "23-JAN-11 17:19:19"
      },
      "geometry": {
        "type": "Point",
        "coordinates": [
          -4.0388866,
          50.5545
        ]
      },
      "id": "node/1119651132"
    },
    {
      "type": "Feature",
      "properties": {
        "@id": "node/1119651334",
        "ele": "336.344482",
        "historic": "archaeological_site",
        "megalith_type": "cist",
        "name": "Cist",
        "site_type": "megalith",
        "source": "survey",
        "wpt_description": "23-JAN-11 17:12:30"
      },
      "geometry": {
        "type": "Point",
        "coordinates": [
          -4.0414129,
          50.5546678
        ]
      },
      "id": "node/1119651334"
    },
    {
      "type": "Feature",
      "properties": {
        "@id": "node/1159023744",
        "historic": "archaeological_site",
        "is_in:country_code": "GB",
        "is_in:county": "Cumbria",
        "megalith_type": "stone_circle",
        "name": "stone circle",
        "site_type": "megalith"
      },
      "geometry": {
        "type": "Point",
        "coordinates": [
          -2.6250935,
          54.5265266
        ]
      },
      "id": "node/1159023744"
    },
    {
      "type": "Feature",
      "properties": {
        "@id": "node/1240775553",
        "historic": "archaeological_site",
        "name": "Ravenswood Avenue Standing Stone",
        "site_type": "megalith",
        "website": "http://www.themodernantiquarian.com/site/728/ravenswood_avenue_standing_stone.html"
      },
      "geometry": {
        "type": "Point",
        "coordinates": [
          -3.1492085,
          55.922241
        ]
      },
      "id": "node/1240775553"
    },
    {
      "type": "Feature",
      "properties": {
        "@id": "node/1272397137",
        "alt_name": "Devil's Den;Devils Den",
        "heritage": "2",
        "heritage:operator": "he",
        "heritage:website": "https://historicengland.org.uk/listing/the-list/list-entry/1012321",
        "historic": "archaeological_site",
        "historic:civilization": "prehistoric",
        "historic:era": "neolithic",
        "historic:period": "stone-age",
        "material": "stone",
        "megalith_type": "dolmen",
        "name": "The Devil's Den",
        "ref:he": "1012321",
        "site_type": "megalith",
        "wikidata": "Q7729909",
        "wikipedia": "en:The Devil's Den"
      },
      "geometry": {
        "type": "Point",
        "coordinates": [
          -1.7826451,
          51.4257049
        ]
      },
      "id": "node/1272397137"
    },
    {
      "type": "Feature",
      "properties": {
        "@id": "node/1291972590",
        "historic": "archaeological_site",
        "megalith_type": "menhir",
        "name": "The Comet Stone",
        "site_type": "megalith",
        "wikidata": "Q2207281"
      },
      "geometry": {
        "type": "Point",
        "coordinates": [
          -3.2265351,
          59.0011371
        ]
      },
      "id": "node/1291972590"
    },
    {
      "type": "Feature",
      "properties": {
        "@id": "node/1293208751",
        "historic": "archaeological_site",
        "megalith_type": "menhir",
        "name": "Brodgar Farm Standing Stones",
        "site_type": "megalith"
      },
      "geometry": {
        "type": "Point",
        "coordinates": [
          -3.2138345,
          58.9968903
        ]
      },
      "id": "node/1293208751"
    },
    {
      "type": "Feature",
      "properties": {
        "@id": "node/1293208753",
        "alt_name": "The Watchstone;Watch Stone",
        "historic": "archaeological_site",
        "historic:civilization": "neolithic",
        "megalith_type": "menhir",
        "name": "Watch Stone (Orkney)",
        "site_type": "megalith",
        "source": "survey",
        "website": "https://www.megalithic.co.uk/article.php?sid=273",
        "wikidata": "Q2248726"
      },
      "geometry": {
        "type": "Point",
        "coordinates": [
          -3.2103641,
          58.9951747
        ]
      },
      "id": "node/1293208753"
    },
    {
      "type": "Feature",
      "properties": {
        "@id": "node/1293208757",
        "historic": "archaeological_site",
        "megalith_type": "menhir",
        "name": "Brodgar Farm Standing Stones",
        "site_type": "megalith"
      },
      "geometry": {
        "type": "Point",
        "coordinates": [
          -3.2139351,
          58.996936
        ]
      },
      "id": "node/1293208757"
    },
    {
      "type": "Feature",
      "properties": {
        "@id": "node/1306200948",
        "addr:city": "Aberdeen",
        "alt_name": "The Standing Stones of Dyce;Tyrebagger Stone Circle;Tyrebagger Circle",
        "historic": "archaeological_site",
        "historic:civilization": "prehistoric",
        "megalith_type": "stone_circle",
        "name": "Tyrebagger Hill Stone Circle",
        "site_type": "megalith",
        "source": "local_knowledge",
        "website": "http://www.megalithics.com/scotland/dyce/dycemain.htm"
      },
      "geometry": {
        "type": "Point",
        "coordinates": [
          -2.2342446,
          57.2093845
        ]
      },
      "id": "node/1306200948"
    },
    {
      "type": "Feature",
      "properties": {
        "@id": "node/1315977884",
        "alt_name": "The Thiefs Hanging Stone",
        "historic": "archaeological_site",
        "megalith_type": "standing_stone",
        "name": "Cloghagaddy Stone",
        "site_type": "megalith",
        "tourism": "landmark",
        "website": "http://www.fermanaghroots.com/wiki/index.php?title=Cloghagaddy#Clogh_Stone"
      },
      "geometry": {
        "type": "Point",
        "coordinates": [
          -7.3407867,
          54.2190289
        ]
      },
      "id": "node/1315977884"
    },
    {
      "type": "Feature",
      "properties": {
        "@id": "node/1335812396",
        "alt_name": "Spinsters Rock;Shilstone Cromlech",
        "heritage": "yes",
        "historic": "archaeological_site",
        "historic:civilization": "prehistoric",
        "historic:era": "neolithic",
        "historic:period": "stone-age",
        "megalith_type": "dolmen",
        "name": "Spinsters' Rock",
        "site_type": "megalith",
        "tourism": "attraction",
        "wikidata": "Q1414789",
        "wikipedia": "en:Spinsters' Rock"
      },
      "geometry": {
        "type": "Point",
        "coordinates": [
          -3.8409521,
          50.702122
        ]
      },
      "id": "node/1335812396"
    },
    {
      "type": "Feature",
      "properties": {
        "@id": "node/1392631417",
        "historic": "archaeological_site",
        "megalith_type": "menhir",
        "name": "Midgley Moor Standing Stone",
        "opening_hours": "24/7",
        "site_type": "megalith"
      },
      "geometry": {
        "type": "Point",
        "coordinates": [
          -1.9766835,
          53.7524621
        ]
      },
      "id": "node/1392631417"
    },
    {
      "type": "Feature",
      "properties": {
        "@id": "node/1404789812",
        "historic": "archaeological_site",
        "material": "stone",
        "megalith_type": "stone_circle",
        "name": "Holm Of Daltallochan Stone Circle",
        "site_type": "megalith",
        "wikidata": "Q56661495"
      },
      "geometry": {
        "type": "Point",
        "coordinates": [
          -4.276288,
          55.2210852
        ]
      },
      "id": "node/1404789812"
    },
    {
      "type": "Feature",
      "properties": {
        "@id": "node/1415828235",
        "historic": "archaeological_site",
        "historic:civilization": "prehistoric",
        "historic:era": "neolithic",
        "historic:period": "stone-age",
        "megalith_type": "dolmen",
        "name": "Chûn Quoit",
        "site_type": "megalith",
        "source": "GPS",
        "website": "https://www.cornishancientsites.com/ancient-sites/chun-quoit/",
        "wikidata": "Q1091060",
        "wikipedia": "en:Chûn Quoit"
      },
      "geometry": {
        "type": "Point",
        "coordinates": [
          -5.6377411,
          50.1485947
        ]
      },
      "id": "node/1415828235"
    },
    {
      "type": "Feature",
      "properties": {
        "@id": "node/1432972378",
        "historic": "archaeological_site",
        "note": "3 standing stones, tagging correct?",
        "site_type": "megalith",
        "wikidata": "Q29015462"
      },
      "geometry": {
        "type": "Point",
        "coordinates": [
          -6.1849172,
          56.6355637
        ]
      },
      "id": "node/1432972378"
    },
    {
      "type": "Feature",
      "properties": {
        "@id": "node/1609572713",
        "historic": "archaeological_site",
        "historic:civilization": "prehistoric",
        "historic:period": "bronze-age",
        "megalith_type": "menhir",
        "name": "King Stone",
        "site_type": "megalith"
      },
      "geometry": {
        "type": "Point",
        "coordinates": [
          -1.5701616,
          51.9762533
        ]
      },
      "id": "node/1609572713"
    },
    {
      "type": "Feature",
      "properties": {
        "@id": "node/1656310237",
        "heritage": "yes",
        "historic": "archaeological_site",
        "material": "stone",
        "megalith_type": "menhir",
        "name": "Devil's Arrows",
        "site_type": "megalith"
      },
      "geometry": {
        "type": "Point",
        "coordinates": [
          -1.4036957,
          54.0932345
        ]
      },
      "id": "node/1656310237"
    },
    {
      "type": "Feature",
      "properties": {
        "@id": "node/1656310238",
        "heritage": "yes",
        "historic": "archaeological_site",
        "material": "stone",
        "megalith_type": "menhir",
        "name": "Devil's Arrows",
        "site_type": "megalith"
      },
      "geometry": {
        "type": "Point",
        "coordinates": [
          -1.4041046,
          54.0937298
        ]
      },
      "id": "node/1656310238"
    },
    {
      "type": "Feature",
      "properties": {
        "@id": "node/1702267468",
        "historic": "archaeological_site",
        "megalith_type": "stone_circle",
        "opening_hours": "24/7",
        "site_type": "megalith"
      },
      "geometry": {
        "type": "Point",
        "coordinates": [
          -2.1947857,
          53.0285993
        ]
      },
      "id": "node/1702267468"
    },
    {
      "type": "Feature",
      "properties": {
        "@id": "node/1741329696",
        "historic": "archaeological_site",
        "megalith_type": "menhir",
        "name": "Moss Stone",
        "site_type": "megalith"
      },
      "geometry": {
        "type": "Point",
        "coordinates": [
          -6.9438946,
          56.5000585
        ]
      },
      "id": "node/1741329696"
    },
    {
      "type": "Feature",
      "properties": {
        "@id": "node/1744578890",
        "historic": "archaeological_site",
        "megalith_type": "menhir",
        "name": "Maen Llia",
        "site_type": "megalith",
        "wikidata": "Q1749088",
        "wikipedia": "en:Maen Llia"
      },
      "geometry": {
        "type": "Point",
        "coordinates": [
          -3.5636846,
          51.8608672
        ]
      },
      "id": "node/1744578890"
    },
    {
      "type": "Feature",
      "properties": {
        "@id": "node/1801645751",
        "historic": "archaeological_site",
        "name": "Cockett Standing Stone",
        "site_type": "megalith"
      },
      "geometry": {
        "type": "Point",
        "coordinates": [
          -3.9877696,
          51.6350835
        ]
      },
      "id": "node/1801645751"
    },
    {
      "type": "Feature",
      "properties": {
        "@id": "node/1857911191",
        "historic": "archaeological_site",
        "material": "stone",
        "megalith_type": "menhir",
        "name": "Long Meg",
        "natural": "stone",
        "site_type": "megalith"
      },
      "geometry": {
        "type": "Point",
        "coordinates": [
          -2.6682977,
          54.7276096
        ]
      },
      "id": "node/1857911191"
    },
    {
      "type": "Feature",
      "properties": {
        "@id": "node/1892390630",
        "historic": "archaeological_site",
        "name": "Croes-faen",
        "name:en": "Dragon Stone",
        "site_type": "megalith",
        "source": "survey"
      },
      "geometry": {
        "type": "Point",
        "coordinates": [
          -4.0728354,
          52.5935509
        ]
      },
      "id": "node/1892390630"
    },
    {
      "type": "Feature",
      "properties": {
        "@id": "node/1917323446",
        "description": "Stone circle",
        "historic": "archaeological_site",
        "megalith_type": "stone_circle",
        "name": "Druid's Altar",
        "site_type": "megalith",
        "source": "OS 1:25k;https://historicengland.org.uk/listing/the-list/list-entry/1008773",
        "source:name": "OS 1853",
        "wikidata": "Q17645612"
      },
      "geometry": {
        "type": "Point",
        "coordinates": [
          -2.0787535,
          54.0833178
        ]
      },
      "id": "node/1917323446"
    },
    {
      "type": "Feature",
      "properties": {
        "@id": "node/1967705183",
        "historic": "archaeological_site",
        "megalith_type": "menhir",
        "site_type": "megalith"
      },
      "geometry": {
        "type": "Point",
        "coordinates": [
          -5.8583929,
          56.3579232
        ]
      },
      "id": "node/1967705183"
    },
    {
      "type": "Feature",
      "properties": {
        "@id": "node/1967705198",
        "historic": "archaeological_site",
        "megalith_type": "menhir",
        "name": "Lochbuie Standing Stone",
        "site_type": "megalith",
        "wikidata": "Q56661413"
      },
      "geometry": {
        "type": "Point",
        "coordinates": [
          -5.8606231,
          56.3609234
        ]
      },
      "id": "node/1967705198"
    },
    {
      "type": "Feature",
      "properties": {
        "@id": "node/1997398726",
        "historic": "archaeological_site",
        "megalith_type": "menhir",
        "site_type": "megalith",
        "source": "gps_waypoint"
      },
      "geometry": {
        "type": "Point",
        "coordinates": [
          -4.4578845,
          50.5170606
        ]
      },
      "id": "node/1997398726"
    },
    {
      "type": "Feature",
      "properties": {
        "@id": "node/1997398728",
        "historic": "archaeological_site",
        "megalith_type": "menhir",
        "site_type": "megalith"
      },
      "geometry": {
        "type": "Point",
        "coordinates": [
          -4.4581879,
          50.5170156
        ]
      },
      "id": "node/1997398728"
    },
    {
      "type": "Feature",
      "properties": {
        "@id": "node/1997398733",
        "historic": "archaeological_site",
        "megalith_type": "menhir",
        "site_type": "megalith"
      },
      "geometry": {
        "type": "Point",
        "coordinates": [
          -4.4582043,
          50.5169399
        ]
      },
      "id": "node/1997398733"
    },
    {
      "type": "Feature",
      "properties": {
        "@id": "node/1997398736",
        "historic": "archaeological_site",
        "megalith_type": "menhir",
        "site_type": "megalith",
        "source": "gps_waypoint"
      },
      "geometry": {
        "type": "Point",
        "coordinates": [
          -4.4581159,
          50.5170754
        ]
      },
      "id": "node/1997398736"
    },
    {
      "type": "Feature",
      "properties": {
        "@id": "node/1997398741",
        "historic": "archaeological_site",
        "megalith_type": "menhir",
        "site_type": "megalith",
        "source": "gps_waypoint"
      },
      "geometry": {
        "type": "Point",
        "coordinates": [
          -4.4579822,
          50.5170833
        ]
      },
      "id": "node/1997398741"
    },
    {
      "type": "Feature",
      "properties": {
        "@id": "node/1997398747",
        "historic": "archaeological_site",
        "megalith_type": "menhir",
        "site_type": "megalith"
      },
      "geometry": {
        "type": "Point",
        "coordinates": [
          -4.4581943,
          50.5169825
        ]
      },
      "id": "node/1997398747"
    },
    {
      "type": "Feature",
      "properties": {
        "@id": "node/1997398758",
        "historic": "archaeological_site",
        "megalith_type": "menhir",
        "site_type": "megalith",
        "source": "gps_waypoint"
      },
      "geometry": {
        "type": "Point",
        "coordinates": [
          -4.4577979,
          50.5170201
        ]
      },
      "id": "node/1997398758"
    },
    {
      "type": "Feature",
      "properties": {
        "@id": "node/2001777163",
        "access": "yes",
        "historic": "archaeological_site",
        "historic:civilization": "prehistoric",
        "historic:period": "bronze-age",
        "megalith_type": "menhir",
        "name": "Standing stone",
        "site_type": "megalith",
        "source": "Bing",
        "wikipedia": "en:Drizzlecombe"
      },
      "geometry": {
        "type": "Point",
        "coordinates": [
          -3.987062,
          50.4856825
        ]
      },
      "id": "node/2001777163"
    },
    {
      "type": "Feature",
      "properties": {
        "@id": "node/2001777165",
        "access": "yes",
        "alt_name": "Drizzlecombe Bone",
        "historic": "archaeological_site",
        "historic:civilization": "prehistoric",
        "historic:period": "bronze-age",
        "megalith_type": "menhir",
        "name": "Bone Stone",
        "site_type": "megalith",
        "source": "Bing",
        "wikipedia": "en:Drizzlecombe"
      },
      "geometry": {
        "type": "Point",
        "coordinates": [
          -3.9859638,
          50.4858119
        ]
      },
      "id": "node/2001777165"
    },
    {
      "type": "Feature",
      "properties": {
        "@id": "node/2001777170",
        "access": "yes",
        "historic": "archaeological_site",
        "historic:civilization": "prehistoric",
        "historic:period": "bronze-age",
        "megalith_type": "menhir",
        "name": "Standing stone",
        "site_type": "megalith",
        "source": "Bing",
        "wikipedia": "en:Drizzlecombe"
      },
      "geometry": {
        "type": "Point",
        "coordinates": [
          -3.9852982,
          50.4863494
        ]
      },
      "id": "node/2001777170"
    },
    {
      "type": "Feature",
      "properties": {
        "@id": "node/2080375366",
        "historic": "archaeological_site",
        "megalith_type": "alignment",
        "name": "Stone Rows",
        "site_type": "megalith",
        "wheelchair": "no"
      },
      "geometry": {
        "type": "Point",
        "coordinates": [
          -3.8978041,
          50.6585377
        ]
      },
      "id": "node/2080375366"
    },
    {
      "type": "Feature",
      "properties": {
        "@id": "node/2080390085",
        "historic": "archaeological_site",
        "megalith_type": "cairn",
        "name": "Quintin's Man (Cairn)",
        "site_type": "megalith"
      },
      "geometry": {
        "type": "Point",
        "coordinates": [
          -3.9514749,
          50.638115
        ]
      },
      "id": "node/2080390085"
    },
    {
      "type": "Feature",
      "properties": {
        "@id": "node/2098075059",
        "historic": "archaeological_site",
        "megalith_type": "stone_circle",
        "name": "Hut Circle",
        "site_type": "megalith"
      },
      "geometry": {
        "type": "Point",
        "coordinates": [
          -3.7789701,
          50.5722048
        ]
      },
      "id": "node/2098075059"
    },
    {
      "type": "Feature",
      "properties": {
        "@id": "node/2106180737",
        "alt_name": "Beacharra;Beacharr;Beacharr Standing Stone",
        "description": "The tallest standing stone in Kintyre, facing east and west and measuring 5.03m high and 1.4m by 0.8m at the base. The top has an irregular profile, falling in successive steps from the peak on the south.",
        "heritage": "2",
        "heritage:operator": "hs",
        "heritage:website": "http://portal.historicenvironment.scot/designation/SM182",
        "historic": "archaeological_site",
        "material": "stone",
        "megalith_type": "menhir",
        "name": "Beacharra Standing Stone",
        "ref:hs": "SM182",
        "site_type": "megalith",
        "source": "https://canmore.org.uk/site/38566/beacharr",
        "tourism": "attraction",
        "wikidata": "Q56661460"
      },
      "geometry": {
        "type": "Point",
        "coordinates": [
          -5.6669332,
          55.6284929
        ]
      },
      "id": "node/2106180737"
    },
    {
      "type": "Feature",
      "properties": {
        "@id": "node/2131097079",
        "historic": "archaeological_site",
        "megalith_type": "alignment",
        "site_type": "megalith",
        "wikidata": "Q804991"
      },
      "geometry": {
        "type": "Point",
        "coordinates": [
          -6.0764627,
          56.6121904
        ]
      },
      "id": "node/2131097079"
    },
    {
      "type": "Feature",
      "properties": {
        "@id": "node/2150848970",
        "heritage": "yes",
        "historic": "archaeological_site",
        "historic:civilization": "prehistoric",
        "historic:era": "neolithic_1;neolithic_2",
        "historic:period": "stone-age",
        "loc_name": "The Giant's House",
        "megalith_type": "dolmen",
        "name": "Trethevy Quoit",
        "name:cor": "Koyt Tredhewi",
        "site_type": "megalith",
        "wikidata": "Q1403777",
        "wikipedia": "en:Trethevy Quoit"
      },
      "geometry": {
        "type": "Point",
        "coordinates": [
          -4.4554281,
          50.4931814
        ]
      },
      "id": "node/2150848970"
    },
    {
      "type": "Feature",
      "properties": {
        "@id": "node/2164678888",
        "historic": "archaeological_site",
        "megalith_type": "stone_circle",
        "name": "Froggatt Edge Stone Circle",
        "site_type": "megalith"
      },
      "geometry": {
        "type": "Point",
        "coordinates": [
          -1.6270569,
          53.2875037
        ]
      },
      "id": "node/2164678888"
    },
    {
      "type": "Feature",
      "properties": {
        "@id": "node/2197670909",
        "designation": "Cup marked stone, ring ditch, stone",
        "historic": "archaeological_site",
        "megalith_type": "menhir",
        "name": "Falcon Stone",
        "site_type": "megalith",
        "source": "RCAHMS"
      },
      "geometry": {
        "type": "Point",
        "coordinates": [
          -3.1447023,
          56.4654819
        ]
      },
      "id": "node/2197670909"
    },
    {
      "type": "Feature",
      "properties": {
        "@id": "node/2318451968",
        "alt_name": "Machrie Moor Stone Circle 5",
        "historic": "archaeological_site",
        "historic:civilization": "prehistoric",
        "historic:era": "neolithic",
        "historic:period": "stone_age",
        "megalith_type": "stone_circle",
        "name": "Fingal’s Cauldron Seat",
        "name:en": "Fingal’s Cauldron Seat",
        "name:gd": "Suidhe-coire Fhionn",
        "site_type": "megalith"
      },
      "geometry": {
        "type": "Point",
        "coordinates": [
          -5.3158374,
          55.5399328
        ]
      },
      "id": "node/2318451968"
    },
    {
      "type": "Feature",
      "properties": {
        "@id": "node/2318451980",
        "historic": "archaeological_site",
        "historic:civilization": "prehistoric",
        "historic:era": "neolithic",
        "historic:period": "stone_age",
        "megalith_type": "stone_circle",
        "name": "Machrie Moor Stone Circle 1",
        "site_type": "megalith"
      },
      "geometry": {
        "type": "Point",
        "coordinates": [
          -5.3108749,
          55.5404868
        ]
      },
      "id": "node/2318451980"
    },
    {
      "type": "Feature",
      "properties": {
        "@id": "node/2318451985",
        "historic": "archaeological_site",
        "historic:civilization": "prehistoric",
        "historic:era": "neolithic",
        "historic:period": "stone_age",
        "megalith_type": "stone_circle",
        "name": "Machrie Moor Stone Circle 11",
        "site_type": "megalith"
      },
      "geometry": {
        "type": "Point",
        "coordinates": [
          -5.310641,
          55.5407383
        ]
      },
      "id": "node/2318451985"
    },
    {
      "type": "Feature",
      "properties": {
        "@id": "node/2318451993",
        "historic": "archaeological_site",
        "historic:civilization": "prehistoric",
        "historic:era": "neolithic",
        "historic:period": "stone_age",
        "megalith_type": "stone_circle",
        "name": "Machrie Moor Stone Circle 4",
        "site_type": "megalith"
      },
      "geometry": {
        "type": "Point",
        "coordinates": [
          -5.3139048,
          55.5400456
        ]
      },
      "id": "node/2318451993"
    },
    {
      "type": "Feature",
      "properties": {
        "@id": "node/2318452000",
        "historic": "archaeological_site",
        "historic:civilization": "prehistoric",
        "historic:era": "neolithic",
        "historic:period": "stone_age",
        "megalith_type": "ring_cairn",
        "name": "Moss Farm Road Stone Circle",
        "site_type": "megalith"
      },
      "geometry": {
        "type": "Point",
        "coordinates": [
          -5.3290402,
          55.5422724
        ]
      },
      "id": "node/2318452000"
    },
    {
      "type": "Feature",
      "properties": {
        "@id": "node/2320068377",
        "historic": "archaeological_site",
        "megalith_type": "round_barrow",
        "site_type": "megalith"
      },
      "geometry": {
        "type": "Point",
        "coordinates": [
          -1.8294387,
          51.4123302
        ]
      },
      "id": "node/2320068377"
    },
    {
      "type": "Feature",
      "properties": {
        "@id": "node/2320068378",
        "historic": "archaeological_site",
        "megalith_type": "round_barrow",
        "site_type": "megalith"
      },
      "geometry": {
        "type": "Point",
        "coordinates": [
          -1.8282318,
          51.4127217
        ]
      },
      "id": "node/2320068378"
    },
    {
      "type": "Feature",
      "properties": {
        "@id": "node/2320068380",
        "historic": "archaeological_site",
        "megalith_type": "round_barrow",
        "site_type": "megalith"
      },
      "geometry": {
        "type": "Point",
        "coordinates": [
          -1.8296211,
          51.412019
        ]
      },
      "id": "node/2320068380"
    },
    {
      "type": "Feature",
      "properties": {
        "@id": "node/2320068385",
        "historic": "archaeological_site",
        "megalith_type": "round_barrow",
        "site_type": "megalith"
      },
      "geometry": {
        "type": "Point",
        "coordinates": [
          -1.8299001,
          51.4116711
        ]
      },
      "id": "node/2320068385"
    },
    {
      "type": "Feature",
      "properties": {
        "@id": "node/2325324258",
        "historic": "archaeological_site",
        "megalith_type": "menhir",
        "name": "Carreg Llwyd",
        "site_type": "megalith"
      },
      "geometry": {
        "type": "Point",
        "coordinates": [
          -4.0220271,
          52.4324566
        ]
      },
      "id": "node/2325324258"
    },
    {
      "type": "Feature",
      "properties": {
        "@id": "node/2325324266",
        "historic": "archaeological_site",
        "megalith_type": "menhir",
        "name": "Carreg Llwyd",
        "site_type": "megalith"
      },
      "geometry": {
        "type": "Point",
        "coordinates": [
          -4.0239671,
          52.432542
        ]
      },
      "id": "node/2325324266"
    },
    {
      "type": "Feature",
      "properties": {
        "@id": "node/2354845267",
        "historic": "archaeological_site",
        "megalith_type": "stone_circle",
        "name": "stone circle remains",
        "site_type": "megalith",
        "source": "OS 1:25k"
      },
      "geometry": {
        "type": "Point",
        "coordinates": [
          -1.8033493,
          53.8479088
        ]
      },
      "id": "node/2354845267"
    },
    {
      "type": "Feature",
      "properties": {
        "@id": "node/2358426014",
        "historic": "archaeological_site",
        "megalith_type": "menhir",
        "name": "King´s Stone",
        "site_type": "megalith"
      },
      "geometry": {
        "type": "Point",
        "coordinates": [
          -3.4658578,
          56.4380477
        ]
      },
      "id": "node/2358426014"
    },
    {
      "type": "Feature",
      "properties": {
        "@id": "node/2375630162",
        "alt_name": "Aberlemno 2",
        "historic": "archaeological_site",
        "historic:civilization": "pictish",
        "megalith_type": "menhir",
        "name": "The Churchyard Cross",
        "name:sco": "Kirkyard Stane",
        "site_type": "megalith",
        "tourism": "attraction",
        "wikidata": "Q2293146",
        "wikipedia": "en:Aberlemno Sculptured Stones"
      },
      "geometry": {
        "type": "Point",
        "coordinates": [
          -2.781333,
          56.6893074
        ]
      },
      "id": "node/2375630162"
    },
    {
      "type": "Feature",
      "properties": {
        "@id": "node/2375630166",
        "alt_name": "Aberlemno 3",
        "historic": "archaeological_site",
        "historic:civilization": "pictish",
        "megalith_type": "menhir",
        "name": "The Roadside Cross",
        "site_type": "megalith",
        "tourism": "attraction",
        "wikidata": "Q2293146",
        "wikipedia": "en:Aberlemno Sculptured Stones"
      },
      "geometry": {
        "type": "Point",
        "coordinates": [
          -2.7813062,
          56.6920938
        ]
      },
      "id": "node/2375630166"
    },
    {
      "type": "Feature",
      "properties": {
        "@id": "node/2375630170",
        "alt_name": "Aberlemno 5",
        "historic": "archaeological_site",
        "historic:civilization": "celtic",
        "megalith_type": "menhir",
        "name": "The Serpent Stone",
        "site_type": "megalith",
        "tourism": "attraction",
        "wikidata": "Q2293146",
        "wikipedia": "en:Aberlemno Sculptured Stones"
      },
      "geometry": {
        "type": "Point",
        "coordinates": [
          -2.7808072,
          56.6925505
        ]
      },
      "id": "node/2375630170"
    },
    {
      "type": "Feature",
      "properties": {
        "@id": "node/2375630174",
        "alt_name": "Aberlemno 1",
        "historic": "archaeological_site",
        "historic:civilization": "celtic",
        "megalith_type": "menhir",
        "name": "The Crescent Stone",
        "site_type": "megalith",
        "tourism": "attraction",
        "wikidata": "Q2293146",
        "wikipedia": "en:Aberlemno Sculptured Stones"
      },
      "geometry": {
        "type": "Point",
        "coordinates": [
          -2.7810271,
          56.6923915
        ]
      },
      "id": "node/2375630174"
    },
    {
      "type": "Feature",
      "properties": {
        "@id": "node/2381210578",
        "historic": "archaeological_site",
        "historic:civilization": "neolithic",
        "name": "Dyffryn Ardudwy Burial Chambers",
        "site_type": "megalith"
      },
      "geometry": {
        "type": "Point",
        "coordinates": [
          -4.0942611,
          52.7846417
        ]
      },
      "id": "node/2381210578"
    },
    {
      "type": "Feature",
      "properties": {
        "@id": "node/2392180701",
        "historic": "archaeological_site",
        "megalith_type": "stone_circle",
        "name": "Hjaltadans",
        "site_type": "megalith"
      },
      "geometry": {
        "type": "Point",
        "coordinates": [
          -0.8655058,
          60.6102582
        ]
      },
      "id": "node/2392180701"
    },
    {
      "type": "Feature",
      "properties": {
        "@id": "node/2412270422",
        "historic": "archaeological_site",
        "megalith_type": "stone_circle",
        "note": "A small circle of 13 stones, one still standing.",
        "site_type": "megalith"
      },
      "geometry": {
        "type": "Point",
        "coordinates": [
          -2.8133514,
          51.6376404
        ]
      },
      "id": "node/2412270422"
    },
    {
      "type": "Feature",
      "properties": {
        "@id": "node/2431553674",
        "historic": "archaeological_site",
        "megalith_type": "stone_circle",
        "name": "stone circle",
        "site_type": "megalith"
      },
      "geometry": {
        "type": "Point",
        "coordinates": [
          -2.6389566,
          54.5328155
        ]
      },
      "id": "node/2431553674"
    },
    {
      "type": "Feature",
      "properties": {
        "@id": "node/2470539757",
        "historic": "archaeological_site",
        "megalith_type": "stone_circle",
        "site_type": "megalith"
      },
      "geometry": {
        "type": "Point",
        "coordinates": [
          -0.5570739,
          51.1367867
        ]
      },
      "id": "node/2470539757"
    },
    {
      "type": "Feature",
      "properties": {
        "@id": "node/2480662927",
        "historic": "archaeological_site",
        "megalith_type": "menhir",
        "name": "Mony's Stone",
        "site_type": "megalith"
      },
      "geometry": {
        "type": "Point",
        "coordinates": [
          -4.7010207,
          57.3320674
        ]
      },
      "id": "node/2480662927"
    },
    {
      "type": "Feature",
      "properties": {
        "@id": "node/2495627942",
        "heritage": "yes",
        "historic": "archaeological_site",
        "material": "stone",
        "megalith_type": "menhir",
        "name": "The Long Rock",
        "site_type": "megalith",
        "source": "1:25k + verbal",
        "source:alt_name": "1:25k",
        "source:name": "verbal",
        "tourism": "attraction",
        "wikidata": "Q17674083"
      },
      "geometry": {
        "type": "Point",
        "coordinates": [
          -6.3023347,
          49.9319284
        ]
      },
      "id": "node/2495627942"
    },
    {
      "type": "Feature",
      "properties": {
        "@id": "node/2535237729",
        "historic": "archaeological_site",
        "historic:civilization": "prehistoric",
        "historic:period": "bronze-age",
        "megalith_type": "menhir",
        "name": "Langstone Man (Standing Stone)",
        "site_type": "megalith"
      },
      "geometry": {
        "type": "Point",
        "coordinates": [
          -4.0495785,
          50.5902782
        ]
      },
      "id": "node/2535237729"
    },
    {
      "type": "Feature",
      "properties": {
        "@id": "node/2539779873",
        "historic": "archaeological_site",
        "megalith_type": "menhir",
        "name": "Nether Largie standing stone",
        "site_type": "megalith",
        "tourism": "attraction"
      },
      "geometry": {
        "type": "Point",
        "coordinates": [
          -5.4960296,
          56.1228207
        ]
      },
      "id": "node/2539779873"
    },
    {
      "type": "Feature",
      "properties": {
        "@id": "node/2553978904",
        "historic": "archaeological_site",
        "megalith_type": "dolmen",
        "name": "Dalcross Chambered Cairn",
        "site_type": "megalith"
      },
      "geometry": {
        "type": "Point",
        "coordinates": [
          -4.0382405,
          57.5099268
        ]
      },
      "id": "node/2553978904"
    },
    {
      "type": "Feature",
      "properties": {
        "@id": "node/2562332686",
        "historic": "archaeological_site",
        "megalith_type": "stone_circle",
        "name": "White Hag Stone Circle",
        "site_type": "megalith",
        "source": "http://www.pastscape.org.uk/hob.aspx?hob_id=13424"
      },
      "geometry": {
        "type": "Point",
        "coordinates": [
          -2.6079431,
          54.4981753
        ]
      },
      "id": "node/2562332686"
    },
    {
      "type": "Feature",
      "properties": {
        "@id": "node/2574441741",
        "historic": "archaeological_site",
        "megalith_type": "menhir",
        "name": "Standing Stone",
        "site_type": "megalith"
      },
      "geometry": {
        "type": "Point",
        "coordinates": [
          -2.3672807,
          57.2663168
        ]
      },
      "id": "node/2574441741"
    },
    {
      "type": "Feature",
      "properties": {
        "@id": "node/2574441742",
        "historic": "archaeological_site",
        "megalith_type": "menhir",
        "name": "Standing Stone",
        "site_type": "megalith"
      },
      "geometry": {
        "type": "Point",
        "coordinates": [
          -2.3672056,
          57.2631606
        ]
      },
      "id": "node/2574441742"
    },
    {
      "type": "Feature",
      "properties": {
        "@id": "node/2574441743",
        "historic": "archaeological_site",
        "megalith_type": "menhir",
        "name": "Standing Stone",
        "site_type": "megalith"
      },
      "geometry": {
        "type": "Point",
        "coordinates": [
          -2.3672471,
          57.2653436
        ]
      },
      "id": "node/2574441743"
    },
    {
      "type": "Feature",
      "properties": {
        "@id": "node/2600533435",
        "historic": "archaeological_site",
        "megalith_type": "celtic_cross",
        "name": "King Doniert’s Stone",
        "site_type": "megalith",
        "wikidata": "Q946346"
      },
      "geometry": {
        "type": "Point",
        "coordinates": [
          -4.4881659,
          50.492795
        ]
      },
      "id": "node/2600533435"
    },
    {
      "type": "Feature",
      "properties": {
        "@id": "node/2684082444",
        "historic": "archaeological_site",
        "megalith_type": "menhir",
        "protected": "yes",
        "site_type": "megalith"
      },
      "geometry": {
        "type": "Point",
        "coordinates": [
          -7.4614658,
          54.8270112
        ]
      },
      "id": "node/2684082444"
    },
    {
      "type": "Feature",
      "properties": {
        "@id": "node/2696871186",
        "alt_name": "Lanhill Long Barrow;Hubba's Low",
        "description": "Long Barrow",
        "heritage": "2",
        "heritage:operator": "he",
        "heritage:website": "https://historicengland.org.uk/listing/the-list/list-entry/1010908",
        "historic": "archaeological_site",
        "material": "stone",
        "megalith_type": "long_barrow",
        "name": "Lanhill Barrow",
        "ref:he": "1010908",
        "site_type": "megalith",
        "source": "OS 1:25k",
        "wikidata": "Q17650128"
      },
      "geometry": {
        "type": "Point",
        "coordinates": [
          -2.177916,
          51.4713039
        ]
      },
      "id": "node/2696871186"
    },
    {
      "type": "Feature",
      "properties": {
        "@id": "node/2725005834",
        "height": "7.6",
        "historic": "archaeological_site",
        "historic:civilization": "prehistoric",
        "historic:era": "neolithic_3;neo-chalcolithic",
        "historic:period": "stone-age;bronze-age",
        "megalith_type": "menhir",
        "name": "Rudston Monolith",
        "site_type": "megalith",
        "source": "Survey",
        "wikidata": "Q1423973",
        "wikipedia": "en:Rudston Monolith"
      },
      "geometry": {
        "type": "Point",
        "coordinates": [
          -0.322574,
          54.093884
        ]
      },
      "id": "node/2725005834"
    },
    {
      "type": "Feature",
      "properties": {
        "@id": "node/2783908432",
        "historic": "archaeological_site",
        "megalith_type": "menhir",
        "name": "Mare and Foal",
        "note": "Doesn't seem to be much info on this. Some however suggest it may not be that old or a standing stone in the usual definition.",
        "site_type": "megalith",
        "source": "Bing",
        "wikidata": "Q17675109"
      },
      "geometry": {
        "type": "Point",
        "coordinates": [
          -2.4307866,
          54.9908315
        ]
      },
      "id": "node/2783908432"
    },
    {
      "type": "Feature",
      "properties": {
        "@id": "node/2798262550",
        "historic": "archaeological_site",
        "megalith_type": "bigstone",
        "name": "Cuckoo Stone",
        "site_type": "megalith",
        "wikidata": "Q23073287"
      },
      "geometry": {
        "type": "Point",
        "coordinates": [
          -1.7916343,
          51.1891399
        ]
      },
      "id": "node/2798262550"
    },
    {
      "type": "Feature",
      "properties": {
        "@id": "node/2919219588",
        "historic": "archaeological_site",
        "historic:civilization": "neolithic",
        "name": "Stone Circle",
        "site_type": "megalith"
      },
      "geometry": {
        "type": "Point",
        "coordinates": [
          -4.0523016,
          52.7713856
        ]
      },
      "id": "node/2919219588"
    },
    {
      "type": "Feature",
      "properties": {
        "@id": "node/2923843180",
        "historic": "archaeological_site",
        "historic:civilization": "neolithic",
        "name": "Pont Scethin A Standing Stones",
        "site_type": "megalith"
      },
      "geometry": {
        "type": "Point",
        "coordinates": [
          -4.0362572,
          52.7926217
        ]
      },
      "id": "node/2923843180"
    },
    {
      "type": "Feature",
      "properties": {
        "@id": "node/2927386464",
        "historic": "archaeological_site",
        "historic:civilization": "neolithic",
        "name": "Cerrig Arthur Stone Circle",
        "name:cy": "Maen y Cleddau",
        "site_type": "megalith"
      },
      "geometry": {
        "type": "Point",
        "coordinates": [
          -4.0287022,
          52.7500728
        ]
      },
      "id": "node/2927386464"
    },
    {
      "type": "Feature",
      "properties": {
        "@id": "node/2928411387",
        "historic": "archaeological_site",
        "historic:civilization": "prehistoric",
        "name": "Fonllech Cairn Circles",
        "name:cy": "Carneddau Crynion",
        "site_type": "megalith"
      },
      "geometry": {
        "type": "Point",
        "coordinates": [
          -4.0661431,
          52.8716345
        ]
      },
      "id": "node/2928411387"
    },
    {
      "type": "Feature",
      "properties": {
        "@id": "node/2963354128",
        "historic": "archaeological_site",
        "historic:civilization": "iron-age",
        "name": "Fonllech Menhir 8",
        "site_type": "megalith"
      },
      "geometry": {
        "type": "Point",
        "coordinates": [
          -4.0788303,
          52.8610289
        ]
      },
      "id": "node/2963354128"
    },
    {
      "type": "Feature",
      "properties": {
        "@id": "node/2984427689",
        "historic": "archaeological_site",
        "megalith_type": "menhir",
        "name": "Brodick Standing Stone 2",
        "site_type": "megalith"
      },
      "geometry": {
        "type": "Point",
        "coordinates": [
          -5.1652879,
          55.5897025
        ]
      },
      "id": "node/2984427689"
    },
    {
      "type": "Feature",
      "properties": {
        "@id": "node/2984427690",
        "historic": "archaeological_site",
        "megalith_type": "menhir",
        "name": "Brodick Standing Stone 3",
        "site_type": "megalith"
      },