{
  "type": "FeatureCollection",
  "generator": "overpass-ide",
  "copyright": "The data included in this document is from www.openstreetmap.org. The data is made available under ODbL.",
  "timestamp": "2022-06-01T02:54:30Z",
  "features": [
    {
      "type": "Feature",
      "properties": {
        "@id": "node/12791150",
        "waterway": "waterfall"
      },
      "geometry": {
        "type": "Point",
        "coordinates": [
          -2.1304552,
          54.0727021
        ]
      },
      "id": "node/12791150"
    },
    {
      "type": "Feature",
      "properties": {
        "@id": "node/12867574",
        "attraction": "waterfall",
        "description": "Small waterfall carrying Gordale Beck over a limestone outcrop topped by tufa into a deep pool below. The name Janet (sometimes Jennet) is believed to refer to a fairy queen held to inhabit a cave at the rear of the fall. Source: Wikipedia",
        "name": "Janet's Foss",
        "tourism": "attraction",
        "waterway": "waterfall",
        "wikidata": "Q37283",
        "wikipedia": "en:Janet's Foss"
      },
      "geometry": {
        "type": "Point",
        "coordinates": [
          -2.1361716,
          54.0658197
        ]
      },
      "id": "node/12867574"
    },
    {
      "type": "Feature",
      "properties": {
        "@id": "node/21512501",
        "waterway": "waterfall"
      },
      "geometry": {
        "type": "Point",
        "coordinates": [
          -2.8715833,
          54.4767327
        ]
      },
      "id": "node/21512501"
    },
    {
      "type": "Feature",
      "properties": {
        "@id": "node/26453540",
        "name": "The Strid",
        "waterway": "waterfall"
      },
      "geometry": {
        "type": "Point",
        "coordinates": [
          -1.9031343,
          54.0036657
        ]
      },
      "id": "node/26453540"
    },
    {
      "type": "Feature",
      "properties": {
        "@id": "node/29039303",
        "waterway": "waterfall"
      },
      "geometry": {
        "type": "Point",
        "coordinates": [
          -4.2643878,
          55.8061125
        ]
      },
      "id": "node/29039303"
    },
    {
      "type": "Feature",
      "properties": {
        "@id": "node/29085574",
        "note": "1'",
        "waterway": "waterfall"
      },
      "geometry": {
        "type": "Point",
        "coordinates": [
          -1.1075865,
          52.1518704
        ]
      },
      "id": "node/29085574"
    },
    {
      "type": "Feature",
      "properties": {
        "@id": "node/29267513",
        "name": "Rhaeadrau Henllan / Henllan Falls",
        "name:cy": "Rhaeadrau Henllan",
        "name:en": "Henllan Falls",
        "waterway": "waterfall"
      },
      "geometry": {
        "type": "Point",
        "coordinates": [
          -4.3951849,
          52.0347241
        ]
      },
      "id": "node/29267513"
    },
    {
      "type": "Feature",
      "properties": {
        "@id": "node/29390418",
        "waterway": "waterfall"
      },
      "geometry": {
        "type": "Point",
        "coordinates": [
          -3.2592706,
          55.9116763
        ]
      },
      "id": "node/29390418"
    },
    {
      "type": "Feature",
      "properties": {
        "@id": "node/29440989",
        "source": "npe",
        "waterway": "waterfall"
      },
      "geometry": {
        "type": "Point",
        "coordinates": [
          -3.8701086,
          52.3863027
        ]
      },
      "id": "node/29440989"
    },
    {
      "type": "Feature",
      "properties": {
        "@id": "node/29537178",
        "height": "29",
        "name": "High Force",
        "tourism": "attraction",
        "waterway": "waterfall",
        "wikidata": "Q37389",
        "wikimedia_commons": "File:High Force - geograph.org.uk - 1295229.jpg",
        "wikipedia": "en:High Force"
      },
      "geometry": {
        "type": "Point",
        "coordinates": [
          -2.1876458,
          54.6503045
        ]
      },
      "id": "node/29537178"
    },
    {
      "type": "Feature",
      "properties": {
        "@id": "node/29731252",
        "name": "Low Force",
        "tourism": "attraction",
        "waterway": "waterfall",
        "wikidata": "Q1674405",
        "wikipedia": "en:Low Force"
      },
      "geometry": {
        "type": "Point",
        "coordinates": [
          -2.1511168,
          54.6462659
        ]
      },
      "id": "node/29731252"
    },
    {
      "type": "Feature",
      "properties": {
        "@id": "node/29735946",
        "waterway": "waterfall"
      },
      "geometry": {
        "type": "Point",
        "coordinates": [
          -2.1514369,
          54.6469074
        ]
      },
      "id": "node/29735946"
    },
    {
      "type": "Feature",
      "properties": {
        "@id": "node/30318354",
        "waterway": "waterfall"
      },
      "geometry": {
        "type": "Point",
        "coordinates": [
          -3.1929624,
          54.4209357
        ]
      },
      "id": "node/30318354"
    },
    {
      "type": "Feature",
      "properties": {
        "@id": "node/30318359",
        "waterway": "waterfall"
      },
      "geometry": {
        "type": "Point",
        "coordinates": [
          -3.1954908,
          54.4261537
        ]
      },
      "id": "node/30318359"
    },
    {
      "type": "Feature",
      "properties": {
        "@id": "node/30814254",
        "name": "Whorneyside Force",
        "waterway": "waterfall"
      },
      "geometry": {
        "type": "Point",
        "coordinates": [
          -3.1406172,
          54.4383243
        ]
      },
      "id": "node/30814254"
    },
    {
      "type": "Feature",
      "properties": {
        "@id": "node/30851859",
        "waterway": "waterfall"
      },
      "geometry": {
        "type": "Point",
        "coordinates": [
          -3.0295098,
          54.5143466
        ]
      },
      "id": "node/30851859"
    },
    {
      "type": "Feature",
      "properties": {
        "@id": "node/30852802",
        "waterway": "waterfall"
      },
      "geometry": {
        "type": "Point",
        "coordinates": [
          -3.0377425,
          54.5035455
        ]
      },
      "id": "node/30852802"
    },
    {
      "type": "Feature",
      "properties": {
        "@id": "node/30852803",
        "waterway": "waterfall"
      },
      "geometry": {
        "type": "Point",
        "coordinates": [
          -3.0358186,
          54.5045239
        ]
      },
      "id": "node/30852803"
    },
    {
      "type": "Feature",
      "properties": {
        "@id": "node/30853045",
        "waterway": "waterfall"
      },
      "geometry": {
        "type": "Point",
        "coordinates": [
          -3.0282747,
          54.4985097
        ]
      },
      "id": "node/30853045"
    },
    {
      "type": "Feature",
      "properties": {
        "@id": "node/30908894",
        "waterway": "waterfall"
      },
      "geometry": {
        "type": "Point",
        "coordinates": [
          -3.0834058,
          54.4678774
        ]
      },
      "id": "node/30908894"
    },
    {
      "type": "Feature",
      "properties": {
        "@id": "node/31231030",
        "addr:city": "Dumfries & Galloway",
        "addr:postcode": "DG10 9LH",
        "addr:street": "Moffat Water Valley",
        "name": "Grey Mare's Tail (NTS)",
        "source": "local_knowledge",
        "tourism": "attraction",
        "waterway": "waterfall",
        "wikidata": "Q5608199",
        "wikipedia": "en:Grey Mare's Tail, Galloway"
      },
      "geometry": {
        "type": "Point",
        "coordinates": [
          -3.2910533,
          55.421313
        ]
      },
      "id": "node/31231030"
    },
    {
      "type": "Feature",
      "properties": {
        "@id": "node/31624134",
        "note": "check tags  45 degrees, more like rapids.  About 7-8' high",
        "waterway": "waterfall"
      },
      "geometry": {
        "type": "Point",
        "coordinates": [
          -2.9708039,
          54.5906322
        ]
      },
      "id": "node/31624134"
    },
    {
      "type": "Feature",
      "properties": {
        "@id": "node/31769089",
        "name": "Grey Mare's Tail Waterfall",
        "tourism": "attraction",
        "waterway": "waterfall"
      },
      "geometry": {
        "type": "Point",
        "coordinates": [
          -4.9633921,
          56.7190261
        ]
      },
      "id": "node/31769089"
    },
    {
      "type": "Feature",
      "properties": {
        "@id": "node/31901232",
        "note": "checktags",
        "note_1": "about 1'",
        "waterway": "waterfall"
      },
      "geometry": {
        "type": "Point",
        "coordinates": [
          -1.1593459,
          52.111131
        ]
      },
      "id": "node/31901232"
    },
    {
      "type": "Feature",
      "properties": {
        "@id": "node/33239240",
        "name": "Dunduff Linn",
        "source": "visual survey;estimate",
        "waterway": "waterfall"
      },
      "geometry": {
        "type": "Point",
        "coordinates": [
          -3.7807999,
          55.6608763
        ]
      },
      "id": "node/33239240"
    },
    {
      "type": "Feature",
      "properties": {
        "@id": "node/33381887",
        "fixme": "check exact location",
        "source": "OS sheet 134,1853",
        "waterway": "waterfall"
      },
      "geometry": {
        "type": "Point",
        "coordinates": [
          -1.9644025,
          54.0711064
        ]
      },
      "id": "node/33381887"
    },
    {
      "type": "Feature",
      "properties": {
        "@id": "node/33736371",
        "name": "Linn of Dee",
        "name:gd": "Linne Dhè",
        "name:sco": "Linn o Dee",
        "tourism": "attraction",
        "waterway": "waterfall"
      },
      "geometry": {
        "type": "Point",
        "coordinates": [
          -3.5452738,
          56.988372
        ]
      },
      "id": "node/33736371"
    },
    {
      "type": "Feature",
      "properties": {
        "@id": "node/33736388",
        "intermittent": "no",
        "name": "Chest of Dee",
        "waterway": "waterfall"
      },
      "geometry": {
        "type": "Point",
        "coordinates": [
          -3.6257425,
          56.9783819
        ]
      },
      "id": "node/33736388"
    },
    {
      "type": "Feature",
      "properties": {
        "@id": "node/33736625",
        "waterway": "waterfall"
      },
      "geometry": {
        "type": "Point",
        "coordinates": [
          -3.4632891,
          57.0059753
        ]
      },
      "id": "node/33736625"
    },
    {
      "type": "Feature",
      "properties": {
        "@id": "node/33873203",
        "note": "3' waterfall",
        "waterway": "waterfall"
      },
      "geometry": {
        "type": "Point",
        "coordinates": [
          -1.0395597,
          52.1585697
        ]
      },
      "id": "node/33873203"
    },
    {
      "type": "Feature",
      "properties": {
        "@id": "node/36166600",
        "waterway": "waterfall"
      },
      "geometry": {
        "type": "Point",
        "coordinates": [
          -1.0615236,
          52.1148574
        ]
      },
      "id": "node/36166600"
    },
    {
      "type": "Feature",
      "properties": {
        "@id": "node/36166603",
        "waterway": "waterfall"
      },
      "geometry": {
        "type": "Point",
        "coordinates": [
          -1.0614463,
          52.1149122
        ]
      },
      "id": "node/36166603"
    },
    {
      "type": "Feature",
      "properties": {
        "@id": "node/101842393",
        "name": "Falls of Falloch",
        "waterway": "waterfall",
        "whitewater:rapid_grade": "5",
        "whitewater:rapid_name": "Falls of Falloch",
        "wikidata": "Q5432520",
        "wikipedia": "en:Falls of Falloch"
      },
      "geometry": {
        "type": "Point",
        "coordinates": [
          -4.6923857,
          56.3502484
        ]
      },
      "id": "node/101842393"
    },
    {
      "type": "Feature",
      "properties": {
        "@id": "node/143854838",
        "waterway": "waterfall"
      },
      "geometry": {
        "type": "Point",
        "coordinates": [
          -1.6025774,
          54.9992276
        ]
      },
      "id": "node/143854838"
    },
    {
      "type": "Feature",
      "properties": {
        "@id": "node/143854868",
        "waterway": "waterfall"
      },
      "geometry": {
        "type": "Point",
        "coordinates": [
          -1.5999373,
          54.998899
        ]
      },
      "id": "node/143854868"
    },
    {
      "type": "Feature",
      "properties": {
        "@id": "node/181309140",
        "alt_name": "Eas a' Chual Aluinn",
        "name": "Eas a' Chùil Àlainn",
        "source": "NPE",
        "waterway": "waterfall",
        "wikidata": "Q37820",
        "wikipedia": "en:Eas a' Chual Aluinn"
      },
      "geometry": {
        "type": "Point",
        "coordinates": [
          -4.928565,
          58.204455
        ]
      },
      "id": "node/181309140"
    },
    {
      "type": "Feature",
      "properties": {
        "@id": "node/243461912",
        "height": "2",
        "waterway": "waterfall"
      },
      "geometry": {
        "type": "Point",
        "coordinates": [
          -0.2744666,
          51.4952801
        ]
      },
      "id": "node/243461912"
    },
    {
      "type": "Feature",
      "properties": {
        "@id": "node/253376790",
        "name": "Moss Force",
        "source": "GPS",
        "waterway": "waterfall",
        "wikidata": "Q1949432"
      },
      "geometry": {
        "type": "Point",
        "coordinates": [
          -3.2493091,
          54.5449826
        ]
      },
      "id": "node/253376790"
    },
    {
      "type": "Feature",
      "properties": {
        "@id": "node/254290076",
        "note": "1'",
        "waterway": "waterfall"
      },
      "geometry": {
        "type": "Point",
        "coordinates": [
          -1.1481266,
          52.2012875
        ]
      },
      "id": "node/254290076"
    },
    {
      "type": "Feature",
      "properties": {
        "@id": "node/254339669",
        "name": "High Force",
        "waterway": "waterfall"
      },
      "geometry": {
        "type": "Point",
        "coordinates": [
          -2.9292296,
          54.5793264
        ]
      },
      "id": "node/254339669"
    },
    {
      "type": "Feature",
      "properties": {
        "@id": "node/254339680",
        "name": "Aira Force",
        "waterway": "waterfall"
      },
      "geometry": {
        "type": "Point",
        "coordinates": [
          -2.9306562,
          54.576634
        ]
      },
      "id": "node/254339680"
    },
    {
      "type": "Feature",
      "properties": {
        "@id": "node/254503002",
        "name": "Jame's Linn",
        "source:name": "sign at bottom",
        "waterway": "waterfall"
      },
      "geometry": {
        "type": "Point",
        "coordinates": [
          -4.2301294,
          55.9921502
        ]
      },
      "id": "node/254503002"
    },
    {
      "type": "Feature",
      "properties": {
        "@id": "node/254503003",
        "name": "Lady's Linn",
        "source:name": "sign at bottom",
        "waterway": "waterfall"
      },
      "geometry": {
        "type": "Point",
        "coordinates": [
          -4.2299683,
          55.9917973
        ]
      },
      "id": "node/254503003"
    },
    {
      "type": "Feature",
      "properties": {
        "@id": "node/254503093",
        "waterway": "waterfall"
      },
      "geometry": {
        "type": "Point",
        "coordinates": [
          -4.2174417,
          55.9967852
        ]
      },
      "id": "node/254503093"
    },
    {
      "type": "Feature",
      "properties": {
        "@id": "node/254503094",
        "name": "Muckle Alicompen",
        "source:name": "sign at bottom",
        "waterway": "waterfall"
      },
      "geometry": {
        "type": "Point",
        "coordinates": [
          -4.2244279,
          55.9949726
        ]
      },
      "id": "node/254503094"
    },
    {
      "type": "Feature",
      "properties": {
        "@id": "node/254504063",
        "waterway": "waterfall"
      },
      "geometry": {
        "type": "Point",
        "coordinates": [
          -4.2541868,
          55.9997372
        ]
      },
      "id": "node/254504063"
    },
    {
      "type": "Feature",
      "properties": {
        "@id": "node/258791521",
        "source": "OS 1:25k",
        "waterway": "waterfall"
      },
      "geometry": {
        "type": "Point",
        "coordinates": [
          -3.886007,
          53.0638778
        ]
      },
      "id": "node/258791521"
    },
    {
      "type": "Feature",
      "properties": {
        "@id": "node/258796133",
        "source": "OS 1:25k",
        "waterway": "waterfall"
      },
      "geometry": {
        "type": "Point",
        "coordinates": [
          -3.9532025,
          53.050556
        ]
      },
      "id": "node/258796133"
    },
    {
      "type": "Feature",
      "properties": {
        "@id": "node/258800697",
        "name": "Rhaeadr Ogwen",
        "name:en": "Ogwen Falls",
        "waterway": "waterfall",
        "wikidata": "Q20594120"
      },
      "geometry": {
        "type": "Point",
        "coordinates": [
          -4.0218412,
          53.1246749
        ]
      },
      "id": "node/258800697"
    },
    {
      "type": "Feature",
      "properties": {
        "@id": "node/258802413",
        "waterway": "waterfall"
      },
      "geometry": {
        "type": "Point",
        "coordinates": [
          -4.0569872,
          53.1680828
        ]
      },
      "id": "node/258802413"
    },
    {
      "type": "Feature",
      "properties": {
        "@id": "node/258837332",
        "name": "Rhaeadr-bach",
        "source": "OS OpenData StreetView",
        "waterway": "waterfall"
      },
      "geometry": {
        "type": "Point",
        "coordinates": [
          -4.0007738,
          53.2068336
        ]
      },
      "id": "node/258837332"
    },
    {
      "type": "Feature",
      "properties": {
        "@id": "node/258837397",
        "height": "37",
        "name": "Y Rhaeadr Fawr",
        "name:en": "Aber Falls",
        "natural": "waterfall",
        "tourism": "attraction",
        "waterway": "waterfall",
        "wikidata": "Q3398779"
      },
      "geometry": {
        "type": "Point",
        "coordinates": [
          -3.9952914,
          53.2104577
        ]
      },
      "id": "node/258837397"
    },
    {
      "type": "Feature",
      "properties": {
        "@id": "node/263463577",
        "name": "Hafod-wen Waterfalls",
        "waterway": "waterfall"
      },
      "geometry": {
        "type": "Point",
        "coordinates": [
          -3.8887276,
          52.9017203
        ]
      },
      "id": "node/263463577"
    },
    {
      "type": "Feature",
      "properties": {
        "@id": "node/263865960",
        "waterway": "waterfall"
      },
      "geometry": {
        "type": "Point",
        "coordinates": [
          -4.0373217,
          52.8155255
        ]
      },
      "id": "node/263865960"
    },
    {
      "type": "Feature",
      "properties": {
        "@id": "node/263865964",
        "waterway": "waterfall"
      },
      "geometry": {
        "type": "Point",
        "coordinates": [
          -4.0333411,
          52.8146654
        ]
      },
      "id": "node/263865964"
    },
    {
      "type": "Feature",
      "properties": {
        "@id": "node/266884217",
        "waterway": "waterfall"
      },
      "geometry": {
        "type": "Point",
        "coordinates": [
          -3.6644827,
          52.5319172
        ]
      },
      "id": "node/266884217"
    },
    {
      "type": "Feature",
      "properties": {
        "@id": "node/267008627",
        "created_by": "JOSM",
        "waterway": "waterfall"
      },
      "geometry": {
        "type": "Point",
        "coordinates": [
          -1.5832395,
          53.2066759
        ]
      },
      "id": "node/267008627"
    },
    {
      "type": "Feature",
      "properties": {
        "@id": "node/267182112",
        "waterway": "waterfall"
      },
      "geometry": {
        "type": "Point",
        "coordinates": [
          -3.8949757,
          52.452159
        ]
      },
      "id": "node/267182112"
    },
    {
      "type": "Feature",
      "properties": {
        "@id": "node/267577359",
        "waterway": "waterfall"
      },
      "geometry": {
        "type": "Point",
        "coordinates": [
          -3.8562548,
          52.3770434
        ]
      },
      "id": "node/267577359"
    },
    {
      "type": "Feature",
      "properties": {
        "@id": "node/267586105",
        "waterway": "waterfall"
      },
      "geometry": {
        "type": "Point",
        "coordinates": [
          -3.7990401,
          52.3394506
        ]
      },
      "id": "node/267586105"
    },
    {
      "type": "Feature",
      "properties": {
        "@id": "node/267738542",
        "waterway": "waterfall"
      },
      "geometry": {
        "type": "Point",
        "coordinates": [
          -4.4643826,
          52.1588341
        ]
      },
      "id": "node/267738542"
    },
    {
      "type": "Feature",
      "properties": {
        "@id": "node/269522562",
        "name": "Badger Fall",
        "waterway": "waterfall",
        "wikidata": "Q4840843",
        "wikipedia": "en:Badger Fall"
      },
      "geometry": {
        "type": "Point",
        "coordinates": [
          -4.8265343,
          57.3169652
        ]
      },
      "id": "node/269522562"
    },
    {
      "type": "Feature",
      "properties": {
        "@id": "node/270091217",
        "waterway": "waterfall"
      },
      "geometry": {
        "type": "Point",
        "coordinates": [
          -5.1086111,
          57.2375288
        ]
      },
      "id": "node/270091217"
    },
    {
      "type": "Feature",
      "properties": {
        "@id": "node/273349878",
        "image": "https://www.geograph.org.uk/photo/1606553",
        "name": "Mill Gill Force",
        "tourism": "attraction",
        "waterway": "waterfall"
      },
      "geometry": {
        "type": "Point",
        "coordinates": [
          -2.0957332,
          54.3189007
        ]
      },
      "id": "node/273349878"
    },
    {
      "type": "Feature",
      "properties": {
        "@id": "node/274606530",
        "height": "150",
        "name": "Falls of Moness",
        "tourism": "attraction",
        "waterway": "waterfall",
        "whitewater:rapid_grade": "6",
        "whitewater:rapid_name": "Falls of Moness",
        "wikidata": "Q5432528",
        "wikipedia": "en:Falls of Moness"
      },
      "geometry": {
        "type": "Point",
        "coordinates": [
          -3.8717898,
          56.6029714
        ]
      },
      "id": "node/274606530"
    },
    {
      "type": "Feature",
      "properties": {
        "@id": "node/274750486",
        "name": "Sgwd Uchaf Clun Gwyn",
        "waterway": "waterfall"
      },
      "geometry": {
        "type": "Point",
        "coordinates": [
          -3.5602772,
          51.786966
        ]
      },
      "id": "node/274750486"
    },
    {
      "type": "Feature",
      "properties": {
        "@id": "node/274751648",
        "name": "Sgwd Isaf Clun Gwyn",
        "waterway": "waterfall"
      },
      "geometry": {
        "type": "Point",
        "coordinates": [
          -3.5608594,
          51.7838899
        ]
      },
      "id": "node/274751648"
    },
    {
      "type": "Feature",
      "properties": {
        "@id": "node/274761490",
        "waterway": "waterfall"
      },
      "geometry": {
        "type": "Point",
        "coordinates": [
          -3.5610524,
          51.7840333
        ]
      },
      "id": "node/274761490"
    },
    {
      "type": "Feature",
      "properties": {
        "@id": "node/276061283",
        "waterway": "waterfall"
      },
      "geometry": {
        "type": "Point",
        "coordinates": [
          -3.8306327,
          51.8851978
        ]
      },
      "id": "node/276061283"
    },
    {
      "type": "Feature",
      "properties": {
        "@id": "node/277915247",
        "name": "Eas an Fhamhair",
        "waterway": "waterfall"
      },
      "geometry": {
        "type": "Point",
        "coordinates": [
          -5.7794388,
          56.0223511
        ]
      },
      "id": "node/277915247"
    },
    {
      "type": "Feature",
      "properties": {
        "@id": "node/278208578",
        "waterway": "waterfall"
      },
      "geometry": {
        "type": "Point",
        "coordinates": [
          -3.1382953,
          54.4777692
        ]
      },
      "id": "node/278208578"
    },
    {
      "type": "Feature",
      "properties": {
        "@id": "node/278208579",
        "waterway": "waterfall"
      },
      "geometry": {
        "type": "Point",
        "coordinates": [
          -3.1391376,
          54.4766876
        ]
      },
      "id": "node/278208579"
    },
    {
      "type": "Feature",
      "properties": {
        "@id": "node/278340699",
        "name": "Falling Foss Waterfall",
        "tourism": "attraction",
        "waterway": "waterfall",
        "wikidata": "Q5432321"
      },
      "geometry": {
        "type": "Point",
        "coordinates": [
          -0.6330466,
          54.4189239
        ]
      },
      "id": "node/278340699"
    },
    {
      "type": "Feature",
      "properties": {
        "@id": "node/279039537",
        "name": "Sgwd Ddu",
        "waterway": "waterfall"
      },
      "geometry": {
        "type": "Point",
        "coordinates": [
          -3.7008,
          51.8480195
        ]
      },
      "id": "node/279039537"
    },
    {
      "type": "Feature",
      "properties": {
        "@id": "node/279039963",
        "waterway": "waterfall"
      },
      "geometry": {
        "type": "Point",
        "coordinates": [
          -3.6824814,
          51.8558335
        ]
      },
      "id": "node/279039963"
    },
    {
      "type": "Feature",
      "properties": {
        "@id": "node/281280649",
        "waterway": "waterfall"
      },
      "geometry": {
        "type": "Point",
        "coordinates": [
          -3.2717463,
          51.7192981
        ]
      },
      "id": "node/281280649"
    },
    {
      "type": "Feature",
      "properties": {
        "@id": "node/288333763",
        "waterway": "waterfall"
      },
      "geometry": {
        "type": "Point",
        "coordinates": [
          -2.7928741,
          54.4522477
        ]
      },
      "id": "node/288333763"
    },
    {
      "type": "Feature",
      "properties": {
        "@id": "node/289106490",
        "name": "Meeting of Three Waters",
        "name:gd": "Comar na Trì Uisge",
        "source": "local_knowledge",
        "waterway": "waterfall"
      },
      "geometry": {
        "type": "Point",
        "coordinates": [
          -4.9808093,
          56.6631491
        ]
      },
      "id": "node/289106490"
    },
    {
      "type": "Feature",
      "properties": {
        "@id": "node/289533121",
        "waterway": "waterfall"
      },
      "geometry": {
        "type": "Point",
        "coordinates": [
          -1.5323429,
          53.4443617
        ]
      },
      "id": "node/289533121"
    },
    {
      "type": "Feature",
      "properties": {
        "@id": "node/290428528",
        "alt_name": "Gwladys Waterfall",
        "name": "Sgwd Gwladys",
        "name:cy": "Sgwd Gwladys",
        "name:en": "Lady Falls",
        "source:name": "NPE + Wikipedia",
        "waterway": "waterfall",
        "wikidata": "Q14508715"
      },
      "geometry": {
        "type": "Point",
        "coordinates": [
          -3.6012131,
          51.7714835
        ]
      },
      "id": "node/290428528"
    },
    {
      "type": "Feature",
      "properties": {
        "@id": "node/290431406",
        "name": "Scwd Ddwli",
        "waterway": "waterfall"
      },
      "geometry": {
        "type": "Point",
        "coordinates": [
          -3.5876317,
          51.7771449
        ]
      },
      "id": "node/290431406"
    },
    {
      "type": "Feature",
      "properties": {
        "@id": "node/299138931",
        "waterway": "waterfall"
      },
      "geometry": {
        "type": "Point",
        "coordinates": [
          -3.364775,
          51.8479248
        ]
      },
      "id": "node/299138931"
    },
    {
      "type": "Feature",
      "properties": {
        "@id": "node/299138941",
        "waterway": "waterfall"
      },
      "geometry": {
        "type": "Point",
        "coordinates": [
          -3.3653697,
          51.8466989
        ]
      },
      "id": "node/299138941"
    },
    {
      "type": "Feature",
      "properties": {
        "@id": "node/299138949",
        "waterway": "waterfall"
      },
      "geometry": {
        "type": "Point",
        "coordinates": [
          -3.3722536,
          51.8490429
        ]
      },
      "id": "node/299138949"
    },
    {
      "type": "Feature",
      "properties": {
        "@id": "node/299138951",
        "waterway": "waterfall"
      },
      "geometry": {
        "type": "Point",
        "coordinates": [
          -3.3720379,
          51.8487865
        ]
      },
      "id": "node/299138951"
    },
    {
      "type": "Feature",
      "properties": {
        "@id": "node/299138966",
        "waterway": "waterfall"
      },
      "geometry": {
        "type": "Point",
        "coordinates": [
          -3.3678105,
          51.8473372
        ]
      },
      "id": "node/299138966"
    },
    {
      "type": "Feature",
      "properties": {
        "@id": "node/301610508",
        "waterway": "waterfall"
      },
      "geometry": {
        "type": "Point",
        "coordinates": [
          -3.3157783,
          54.5061718
        ]
      },
      "id": "node/301610508"
    },
    {
      "type": "Feature",
      "properties": {
        "@id": "node/301613220",
        "waterway": "waterfall"
      },
      "geometry": {
        "type": "Point",
        "coordinates": [
          -3.4099098,
          54.5201485
        ]
      },
      "id": "node/301613220"
    },
    {
      "type": "Feature",
      "properties": {
        "@id": "node/302255055",
        "name": "Falls of Shin",
        "name:gd": "Eas Sin",
        "tourism": "attraction",
        "waterway": "waterfall",
        "wikidata": "Q2066015",
        "wikipedia": "en:Falls of Shin"
      },
      "geometry": {
        "type": "Point",
        "coordinates": [
          -4.4071253,
          57.9606031
        ]
      },
      "id": "node/302255055"
    },
    {
      "type": "Feature",
      "properties": {
        "@id": "node/305223347",
        "waterway": "waterfall"
      },
      "geometry": {
        "type": "Point",
        "coordinates": [
          -3.0846397,
          54.6980898
        ]
      },
      "id": "node/305223347"
    },
    {
      "type": "Feature",
      "properties": {
        "@id": "node/308992087",
        "name": "Trent Falls",
        "waterway": "waterfall"
      },
      "geometry": {
        "type": "Point",
        "coordinates": [
          -0.6869945,
          53.7015359
        ]
      },
      "id": "node/308992087"
    },
    {
      "type": "Feature",
      "properties": {
        "@id": "node/310142367",
        "waterway": "waterfall"
      },
      "geometry": {
        "type": "Point",
        "coordinates": [
          -3.1732814,
          54.6581849
        ]
      },
      "id": "node/310142367"
    },
    {
      "type": "Feature",
      "properties": {
        "@id": "node/310471765",
        "waterway": "waterfall"
      },
      "geometry": {
        "type": "Point",
        "coordinates": [
          -3.0594586,
          54.6229298
        ]
      },
      "id": "node/310471765"
    },
    {
      "type": "Feature",
      "properties": {
        "@id": "node/310471869",
        "waterway": "waterfall"
      },
      "geometry": {
        "type": "Point",
        "coordinates": [
          -3.0475329,
          54.6262798
        ]
      },
      "id": "node/310471869"
    },
    {
      "type": "Feature",
      "properties": {
        "@id": "node/310478584",
        "waterway": "waterfall"
      },
      "geometry": {
        "type": "Point",
        "coordinates": [
          -3.0600018,
          54.5430508
        ]
      },
      "id": "node/310478584"
    },
    {
      "type": "Feature",
      "properties": {
        "@id": "node/310480952",
        "source": "visual survey;estimate",
        "waterway": "waterfall"
      },
      "geometry": {
        "type": "Point",
        "coordinates": [
          -3.0727331,
          54.5311186
        ]
      },
      "id": "node/310480952"
    },
    {
      "type": "Feature",
      "properties": {
        "@id": "node/310481474",
        "waterway": "waterfall"
      },
      "geometry": {
        "type": "Point",
        "coordinates": [
          -3.0859773,
          54.5596322
        ]
      },
      "id": "node/310481474"
    },
    {
      "type": "Feature",
      "properties": {
        "@id": "node/310607589",
        "waterway": "waterfall"
      },
      "geometry": {
        "type": "Point",
        "coordinates": [
          -3.1236392,
          54.5771929
        ]
      },
      "id": "node/310607589"
    },
    {
      "type": "Feature",
      "properties": {
        "@id": "node/310684391",
        "alt_name": "Lodore Cascade",
        "name": "Lodore Falls",
        "tourism": "attraction",
        "waterway": "waterfall",
        "wikidata": "Q1867776"
      },
      "geometry": {
        "type": "Point",
        "coordinates": [
          -3.1380455,
          54.5578503
        ]
      },
      "id": "node/310684391"
    },
    {
      "type": "Feature",
      "properties": {
        "@id": "node/310754868",
        "waterway": "waterfall"
      },
      "geometry": {
        "type": "Point",
        "coordinates": [
          -3.1887415,
          54.4704354
        ]
      },
      "id": "node/310754868"
    },
    {
      "type": "Feature",
      "properties": {
        "@id": "node/310754941",
        "waterway": "waterfall"
      },
      "geometry": {
        "type": "Point",
        "coordinates": [
          -3.1989867,
          54.4743906
        ]
      },
      "id": "node/310754941"
    },
    {
      "type": "Feature",
      "properties": {
        "@id": "node/310755020",
        "name": "Taylorgill Force",
        "waterway": "waterfall",
        "wikidata": "Q21061677"
      },
      "geometry": {
        "type": "Point",
        "coordinates": [
          -3.1906598,
          54.4881767
        ]
      },
      "id": "node/310755020"
    },
    {
      "type": "Feature",
      "properties": {
        "@id": "node/310755248",
        "waterway": "waterfall"
      },
      "geometry": {
        "type": "Point",
        "coordinates": [
          -3.1923902,
          54.4995957
        ]
      },
      "id": "node/310755248"
    },
    {
      "type": "Feature",
      "properties": {
        "@id": "node/310757243",
        "waterway": "waterfall"
      },
      "geometry": {
        "type": "Point",
        "coordinates": [
          -3.167007,
          54.5322827
        ]
      },
      "id": "node/310757243"
    },
    {
      "type": "Feature",
      "properties": {
        "@id": "node/310919620",
        "waterway": "waterfall"
      },
      "geometry": {
        "type": "Point",
        "coordinates": [
          -3.1919538,
          54.5337176
        ]
      },
      "id": "node/310919620"
    },
    {
      "type": "Feature",
      "properties": {
        "@id": "node/310934946",
        "waterway": "waterfall"
      },
      "geometry": {
        "type": "Point",
        "coordinates": [
          -3.2291155,
          54.5094029
        ]
      },
      "id": "node/310934946"
    },
    {
      "type": "Feature",
      "properties": {
        "@id": "node/310935174",
        "waterway": "waterfall"
      },
      "geometry": {
        "type": "Point",
        "coordinates": [
          -3.2647124,
          54.5250189
        ]
      },
      "id": "node/310935174"
    },
    {
      "type": "Feature",
      "properties": {
        "@id": "node/312304278",
        "waterway": "waterfall"
      },
      "geometry": {
        "type": "Point",
        "coordinates": [
          -3.2938789,
          54.4150882
        ]
      },
      "id": "node/312304278"
    },
    {
      "type": "Feature",
      "properties": {
        "@id": "node/312313360",
        "intermittent": "no",
        "name": "Birker Force",
        "waterway": "waterfall"
      },
      "geometry": {
        "type": "Point",
        "coordinates": [
          -3.2525789,
          54.3882191
        ]
      },
      "id": "node/312313360"
    },
    {
      "type": "Feature",
      "properties": {
        "@id": "node/312389761",
        "waterway": "waterfall"
      },
      "geometry": {
        "type": "Point",
        "coordinates": [
          -3.2726898,
          54.3836669
        ]
      },
      "id": "node/312389761"
    },
    {
      "type": "Feature",
      "properties": {
        "@id": "node/312744066",
        "name": "Ess-Na-Crub Waterfall",
        "tourism": "yes",
        "waterway": "waterfall"
      },
      "geometry": {
        "type": "Point",
        "coordinates": [
          -6.0984252,
          55.0170996
        ]
      },
      "id": "node/312744066"
    },
    {
      "type": "Feature",
      "properties": {
        "@id": "node/312744083",
        "name": "Hermit's Falls",
        "tourism": "yes",
        "waterway": "waterfall"
      },
      "geometry": {
        "type": "Point",
        "coordinates": [
          -6.1186781,
          55.0179135
        ]
      },
      "id": "node/312744083"
    },
    {
      "type": "Feature",
      "properties": {
        "@id": "node/314073217",
        "waterway": "waterfall"
      },
      "geometry": {
        "type": "Point",
        "coordinates": [
          -3.1074132,
          54.3819598
        ]
      },
      "id": "node/314073217"
    },
    {
      "type": "Feature",
      "properties": {
        "@id": "node/315102566",
        "name": "Force Falls",
        "waterway": "waterfall"
      },
      "geometry": {
        "type": "Point",
        "coordinates": [
          -3.0163617,
          54.3115347
        ]
      },
      "id": "node/315102566"
    },
    {
      "type": "Feature",
      "properties": {
        "@id": "node/315801455",
        "waterway": "waterfall"
      },
      "geometry": {
        "type": "Point",
        "coordinates": [
          -2.986982,
          54.5516862
        ]
      },
      "id": "node/315801455"
    },
    {
      "type": "Feature",
      "properties": {
        "@id": "node/315829835",
        "waterway": "waterfall"
      },
      "geometry": {
        "type": "Point",
        "coordinates": [
          -2.8885167,
          54.5081468
        ]
      },
      "id": "node/315829835"
    },
    {
      "type": "Feature",
      "properties": {
        "@id": "node/315831034",
        "waterway": "waterfall"
      },
      "geometry": {
        "type": "Point",
        "coordinates": [
          -2.9172251,
          54.5181536
        ]
      },
      "id": "node/315831034"
    },
    {
      "type": "Feature",
      "properties": {
        "@id": "node/317060430",
        "ele": "210",
        "name": "Hareshaw Linn",
        "waterway": "waterfall"
      },
      "geometry": {
        "type": "Point",
        "coordinates": [
          -2.2502878,
          55.1629295
        ]
      },
      "id": "node/317060430"
    },
    {
      "type": "Feature",
      "properties": {
        "@id": "node/319085381",
        "name": "Beezley Falls",
        "waterway": "waterfall"
      },
      "geometry": {
        "type": "Point",
        "coordinates": [
          -2.4527671,
          54.1674921
        ]
      },
      "id": "node/319085381"
    },
    {
      "type": "Feature",
      "properties": {
        "@id": "node/319085389",
        "name": "Snow Falls",
        "waterway": "waterfall"
      },
      "geometry": {
        "type": "Point",
        "coordinates": [
          -2.4558355,
          54.1642762
        ]
      },
      "id": "node/319085389"
    },
    {
      "type": "Feature",
      "properties": {
        "@id": "node/320268871",
        "waterway": "waterfall"
      },
      "geometry": {
        "type": "Point",
        "coordinates": [
          -6.9375283,
          55.0256992
        ]
      },
      "id": "node/320268871"
    },
    {
      "type": "Feature",
      "properties": {
        "@id": "node/320268872",
        "waterway": "waterfall"
      },
      "geometry": {
        "type": "Point",
        "coordinates": [
          -6.9389345,
          55.0256451
        ]
      },
      "id": "node/320268872"
    },
    {
      "type": "Feature",
      "properties": {
        "@id": "node/322830721",
        "name": "Hollybush Spout",
        "waterway": "waterfall"
      },
      "geometry": {
        "type": "Point",
        "coordinates": [
          -2.4689891,
          54.170444
        ]
      },
      "id": "node/322830721"
    },
    {
      "type": "Feature",
      "properties": {
        "@id": "node/322830725",
        "name": "Pecca Falls",
        "waterway": "waterfall"
      },
      "geometry": {
        "type": "Point",
        "coordinates": [
          -2.4684425,
          54.1691689
        ]
      },
      "id": "node/322830725"
    },
    {
      "type": "Feature",
      "properties": {
        "@id": "node/322831129",
        "name": "Thornton Force",
        "waterway": "waterfall"
      },
      "geometry": {
        "type": "Point",
        "coordinates": [
          -2.4688745,
          54.1728635
        ]
      },
      "id": "node/322831129"
    },
    {
      "type": "Feature",
      "properties": {
        "@id": "node/326125512",
        "name": "East Dart Waterfall",
        "tourism": "viewpoint",
        "waterway": "waterfall"
      },
      "geometry": {
        "type": "Point",
        "coordinates": [
          -3.9412688,
          50.6129964
        ]
      },
      "id": "node/326125512"
    },
    {
      "type": "Feature",
      "properties": {
        "@id": "node/331959091",
        "source": "gps survey",
        "waterway": "waterfall"
      },
      "geometry": {
        "type": "Point",
        "coordinates": [
          -4.3452348,
          50.98884
        ]
      },
      "id": "node/331959091"
    },
    {
      "type": "Feature",
      "properties": {
        "@id": "node/332497254",
        "waterway": "waterfall"
      },
      "geometry": {
        "type": "Point",
        "coordinates": [
          -5.4198759,
          57.330666
        ]
      },
      "id": "node/332497254"
    },
    {
      "type": "Feature",
      "properties": {
        "@id": "node/332497257",
        "waterway": "waterfall"
      },
      "geometry": {
        "type": "Point",
        "coordinates": [
          -5.4217814,
          57.3269189
        ]
      },
      "id": "node/332497257"
    },
    {
      "type": "Feature",
      "properties": {
        "@id": "node/333588288",
        "name": "Scale Force",
        "source": "survey",
        "waterway": "waterfall"
      },
      "geometry": {
        "type": "Point",
        "coordinates": [
          -3.314638,
          54.5418138
        ]
      },
      "id": "node/333588288"
    },
    {
      "type": "Feature",
      "properties": {
        "@id": "node/338651680",
        "waterway": "waterfall"
      },
      "geometry": {
        "type": "Point",
        "coordinates": [
          -1.7760404,
          53.8147504
        ]
      },
      "id": "node/338651680"
    },
    {
      "type": "Feature",
      "properties": {
        "@id": "node/338709450",
        "name": "Eas Ban",
        "source": "OS_OpenData_StreetView",
        "waterway": "waterfall",
        "wikidata": "Q5327372"
      },
      "geometry": {
        "type": "Point",
        "coordinates": [
          -5.6391249,
          57.4068447
        ]
      },
      "id": "node/338709450"
    },
    {
      "type": "Feature",
      "properties": {
        "@id": "node/340369398",
        "name": "Tubhailt Mhic 'ic Eòghainn",
        "name:en": "Maclean's Tower",
        "note": "Position approximate",
        "source": "local_knowledge",
        "waterway": "waterfall"
      },
      "geometry": {
        "type": "Point",
        "coordinates": [
          -5.2786014,
          56.7313875
        ]
      },
      "id": "node/340369398"
    },
    {
      "type": "Feature",
      "properties": {
        "@id": "node/342447084",
        "waterway": "waterfall"
      },
      "geometry": {
        "type": "Point",
        "coordinates": [
          -1.8388695,
          53.6372393
        ]
      },
      "id": "node/342447084"
    },
    {
      "type": "Feature",
      "properties": {
        "@id": "node/342458941",
        "height": "1.8",
        "waterway": "waterfall"
      },
      "geometry": {
        "type": "Point",
        "coordinates": [
          -1.9262922,
          53.5761562
        ]
      },
      "id": "node/342458941"
    },
    {
      "type": "Feature",
      "properties": {
        "@id": "node/344283995",
        "name": "Redmire Force",
        "waterway": "waterfall"
      },
      "geometry": {
        "type": "Point",
        "coordinates": [
          -1.9349848,
          54.3056722
        ]
      },
      "id": "node/344283995"
    },
    {
      "type": "Feature",
      "properties": {
        "@id": "node/344284694",
        "waterway": "waterfall"
      },
      "geometry": {
        "type": "Point",
        "coordinates": [
          -1.9693876,
          54.2953027
        ]
      },
      "id": "node/344284694"
    },
    {
      "type": "Feature",
      "properties": {
        "@id": "node/344348403",
        "name": "High Park Scar",
        "waterway": "waterfall"
      },
      "geometry": {
        "type": "Point",
        "coordinates": [
          -2.1353467,
          54.2630086
        ]
      },
      "id": "node/344348403"
    },
    {
      "type": "Feature",
      "properties": {
        "@id": "node/344356693",
        "name": "Water Ling Force",
        "source": "os_25k_firstseries",
        "waterway": "waterfall"
      },
      "geometry": {
        "type": "Point",
        "coordinates": [
          -2.0884429,
          54.2748338
        ]
      },
      "id": "node/344356693"
    },
    {
      "type": "Feature",
      "properties": {
        "@id": "node/344358433",
        "source": "OS 1853",
        "waterway": "waterfall"
      },
      "geometry": {
        "type": "Point",
        "coordinates": [
          -1.9281309,
          54.1440661
        ]
      },
      "id": "node/344358433"
    },
    {
      "type": "Feature",
      "properties": {
        "@id": "node/344492915",
        "name": "Mossdale Gill Force",
        "source": "OS1:25k_OSM",
        "waterway": "waterfall"
      },
      "geometry": {
        "type": "Point",
        "coordinates": [
          -2.2747865,
          54.3178801
        ]
      },
      "id": "node/344492915"
    },
    {
      "type": "Feature",
      "properties": {
        "@id": "node/344496439",
        "waterway": "waterfall"
      },
      "geometry": {
        "type": "Point",
        "coordinates": [
          -2.3082394,
          54.3337384
        ]
      },
      "id": "node/344496439"
    },
    {
      "type": "Feature",
      "properties": {
        "@id": "node/344505118",
        "name": "Seavy Sike Force",
        "source": "OS_OpenData_Streetview",
        "waterway": "waterfall"
      },
      "geometry": {
        "type": "Point",
        "coordinates": [
          -2.2765238,
          54.3588051
        ]
      },
      "id": "node/344505118"
    },
    {
      "type": "Feature",
      "properties": {
        "@id": "node/344519062",
        "source": "NPE;OS 1852",
        "waterway": "waterfall"
      },
      "geometry": {
        "type": "Point",
        "coordinates": [
          -2.1033451,
          54.2096237
        ]
      },
      "id": "node/344519062"
    },
    {
      "type": "Feature",
      "properties": {
        "@id": "node/344519708",
        "waterway": "waterfall"
      },
      "geometry": {
        "type": "Point",
        "coordinates": [
          -2.0851259,
          54.212287
        ]
      },
      "id": "node/344519708"
    },
    {
      "type": "Feature",
      "properties": {
        "@id": "node/344524280",
        "source": "NLS-OS-NatGrid-110k-1940-60",
        "waterway": "waterfall"
      },
      "geometry": {
        "type": "Point",
        "coordinates": [
          -1.9186213,
          54.09868
        ]
      },
      "id": "node/344524280"
    },
    {
      "type": "Feature",
      "properties": {
        "@id": "node/344531338",
        "name": "Bullfront Waterfall",
        "source": "NLS-OS-NatGrid-110k-1940-60",
        "waterway": "waterfall"
      },
      "geometry": {
        "type": "Point",
        "coordinates": [
          -1.9125278,
          54.1023196
        ]
      },
      "id": "node/344531338"
    },
    {
      "type": "Feature",
      "properties": {
        "@id": "node/345834168",
        "description": "Group of mini waterfalls.",
        "name:zh": "????",
        "natural": "cliff",
        "waterway": "waterfall"
      },
      "geometry": {
        "type": "Point",
        "coordinates": [
          -0.2044636,
          51.5031284
        ]
      },
      "id": "node/345834168"
    },
    {
      "type": "Feature",
      "properties": {
        "@id": "node/346329366",
        "name": "Lumsdale Falls",
        "waterway": "waterfall"
      },
      "geometry": {
        "type": "Point",
        "coordinates": [
          -1.5330667,
          53.1418911
        ]
      },
      "id": "node/346329366"
    },
    {
      "type": "Feature",
      "properties": {
        "@id": "node/347659307",
        "waterway": "waterfall"
      },
      "geometry": {
        "type": "Point",
        "coordinates": [
          -2.52418,
          54.3363394
        ]
      },
      "id": "node/347659307"
    },
    {
      "type": "Feature",
      "properties": {
        "@id": "node/347669920",
        "name": "Black Force",
        "waterway": "waterfall"
      },
      "geometry": {
        "type": "Point",
        "coordinates": [
          -2.5496658,
          54.3866794
        ]
      },
      "id": "node/347669920"
    },
    {
      "type": "Feature",
      "properties": {
        "@id": "node/348293311",
        "height": "28.6",
        "name": "Loup of Fintry",
        "waterway": "waterfall",
        "wikipedia": "en:Loup of Fintry"
      },
      "geometry": {
        "type": "Point",
        "coordinates": [
          -4.1498789,
          56.0492781
        ]
      },
      "id": "node/348293311"
    },
    {
      "type": "Feature",
      "properties": {
        "@id": "node/362871339",
        "waterway": "waterfall"
      },
      "geometry": {
        "type": "Point",
        "coordinates": [
          -5.0313141,
          56.5669195
        ]
      },
      "id": "node/362871339"
    },
    {
      "type": "Feature",
      "properties": {
        "@id": "node/368979641",
        "name": "Falls of Dochart",
        "waterway": "waterfall",
        "whitewater:rapid_grade": "4",
        "whitewater:rapid_name": "Falls of Dochart"
      },
      "geometry": {
        "type": "Point",
        "coordinates": [
          -4.3202206,
          56.4625429
        ]
      },
      "id": "node/368979641"
    },
    {
      "type": "Feature",
      "properties": {
        "@id": "node/378384038",
        "source": "OS_OpenData_Streetview",
        "waterway": "waterfall"
      },
      "geometry": {
        "type": "Point",
        "coordinates": [
          -2.0629406,
          54.3139811
        ]
      },
      "id": "node/378384038"
    },
    {
      "type": "Feature",
      "properties": {
        "@id": "node/379701171",
        "name": "Richmond Falls",
        "waterway": "waterfall",
        "wikidata": "Q7330820",
        "wikipedia": "en:Richmond Falls"
      },
      "geometry": {
        "type": "Point",
        "coordinates": [
          -1.7337928,
          54.4009618
        ]
      },
      "id": "node/379701171"
    },
    {
      "type": "Feature",
      "properties": {
        "@id": "node/382450588",
        "source": "survey",
        "waterway": "waterfall"
      },
      "geometry": {
        "type": "Point",
        "coordinates": [
          -4.7249663,
          56.4085926
        ]
      },
      "id": "node/382450588"
    },
    {
      "type": "Feature",
      "properties": {
        "@id": "node/385105922",
        "waterway": "waterfall"
      },
      "geometry": {
        "type": "Point",
        "coordinates": [
          -3.3090622,
          50.6475621
        ]
      },
      "id": "node/385105922"
    },
    {
      "type": "Feature",
      "properties": {
        "@id": "node/388552745",
        "name": "Rogie Falls",
        "name:en": "Rogie Falls",
        "name:gd": "Eas Rothagaidh",
        "tourism": "attraction",
        "waterway": "waterfall",
        "wikidata": "Q7359399",
        "wikipedia": "en:Rogie Falls"
      },
      "geometry": {
        "type": "Point",
        "coordinates": [
          -4.6024988,
          57.5891751
        ]
      },
      "id": "node/388552745"
    },
    {
      "type": "Feature",
      "properties": {
        "@id": "node/389001176",
        "waterway": "waterfall"
      },
      "geometry": {
        "type": "Point",
        "coordinates": [
          -3.3674917,
          51.8476201
        ]
      },
      "id": "node/389001176"
    },
    {
      "type": "Feature",
      "properties": {
        "@id": "node/389447509",
        "name": "Eas Mor",
        "place": "locality",
        "source": "visual survey;bing",
        "waterway": "waterfall",
        "wikidata": "Q5327408",
        "wikipedia": "en:Eas Mòr, Glen Brittle"
      },
      "geometry": {
        "type": "Point",
        "coordinates": [
          -6.2752336,
          57.2112878
        ]
      },
      "id": "node/389447509"
    },
    {
      "type": "Feature",
      "properties": {
        "@id": "node/395253305",
        "waterway": "waterfall"
      },
      "geometry": {
        "type": "Point",
        "coordinates": [
          -5.4020459,
          57.4197195
        ]
      },
      "id": "node/395253305"
    },
    {
      "type": "Feature",
      "properties": {
        "@id": "node/395274151",
        "waterway": "waterfall"
      },
      "geometry": {
        "type": "Point",
        "coordinates": [
          -2.2709519,
          54.1667677
        ]
      },
      "id": "node/395274151"
    },
    {
      "type": "Feature",
      "properties": {
        "@id": "node/398937496",
        "source": "visual survey;estimate",
        "waterway": "waterfall"
      },
      "geometry": {
        "type": "Point",
        "coordinates": [
          -6.062693,
          57.2182419
        ]
      },
      "id": "node/398937496"
    },
    {
      "type": "Feature",
      "properties": {
        "@id": "node/400949536",
        "waterway": "waterfall"
      },
      "geometry": {
        "type": "Point",
        "coordinates": [
          -2.1967189,
          54.4076234
        ]
      },
      "id": "node/400949536"
    },
    {
      "type": "Feature",
      "properties": {
        "@id": "node/400949628",
        "name": "Wain Wath Force",
        "waterway": "waterfall",
        "wikidata": "Q7960140",
        "wikipedia": "en:Wain Wath Force"
      },
      "geometry": {
        "type": "Point",
        "coordinates": [
          -2.1801328,
          54.4093028
        ]
      },
      "id": "node/400949628"
    },
    {
      "type": "Feature",
      "properties": {
        "@id": "node/400949639",
        "name": "Rainby Force",
        "waterway": "waterfall"
      },
      "geometry": {
        "type": "Point",
        "coordinates": [
          -2.1755067,
          54.4088755
        ]
      },
      "id": "node/400949639"
    },
    {
      "type": "Feature",
      "properties": {
        "@id": "node/400949650",
        "waterway": "waterfall"
      },
      "geometry": {
        "type": "Point",
        "coordinates": [
          -2.1728086,
          54.4081112
        ]
      },
      "id": "node/400949650"
    },
    {
      "type": "Feature",
      "properties": {
        "@id": "node/400949685",
        "image": "https://www.geograph.org.uk/photo/519367",
        "name": "Catrake Force",
        "waterway": "waterfall",
        "wikidata": "Q37779",
        "wikipedia": "en:Catrake Force"
      },
      "geometry": {
        "type": "Point",
        "coordinates": [
          -2.1671791,
          54.4070083
        ]
      },
      "id": "node/400949685"
    },
    {
      "type": "Feature",
      "properties": {
        "@id": "node/400999310",
        "name": "Thrang Force",
        "source": "OS OpenData StreetView",
        "waterway": "waterfall"
      },
      "geometry": {
        "type": "Point",
        "coordinates": [
          -2.3306231,
          54.3971553
        ]
      },
      "id": "node/400999310"
    },
    {
      "type": "Feature",
      "properties": {
        "@id": "node/401605370",
        "name": "Dog Falls",
        "name:gd": "Eas a' Choin",
        "source": "survey + Bing",
        "tourism": "attraction",
        "waterway": "waterfall",
        "wikidata": "Q5288183"
      },
      "geometry": {
        "type": "Point",
        "coordinates": [
          -4.8444359,
          57.3132878
        ]
      },
      "id": "node/401605370"
    },
    {
      "type": "Feature",
      "properties": {
        "@id": "node/401605403",
        "waterway": "waterfall"
      },
      "geometry": {
        "type": "Point",
        "coordinates": [
          -4.9863055,
          57.2632787
        ]
      },
      "id": "node/401605403"
    },
    {
      "type": "Feature",
      "properties": {
        "@id": "node/402359475",
        "source": "OS7",
        "waterway": "waterfall"
      },
      "geometry": {
        "type": "Point",
        "coordinates": [
          -5.6922333,
          57.5006406
        ]
      },
      "id": "node/402359475"
    },
    {
      "type": "Feature",
      "properties": {
        "@id": "node/402862967",
        "source": "Bing",
        "waterway": "waterfall"
      },
      "geometry": {
        "type": "Point",
        "coordinates": [
          -2.178773,
          54.4320687
        ]
      },
      "id": "node/402862967"
    },
    {
      "type": "Feature",
      "properties": {
        "@id": "node/402917916",
        "name": "Hind Hole",
        "waterway": "waterfall"
      },
      "geometry": {
        "type": "Point",
        "coordinates": [
          -2.1372832,
          54.4103614
        ]
      },
      "id": "node/402917916"
    },
    {
      "type": "Feature",
      "properties": {
        "@id": "node/402935019",
        "name": "Swinner Gill Kirk",
        "source": "gps survey",
        "waterway": "waterfall"
      },
      "geometry": {
        "type": "Point",
        "coordinates": [
          -2.1384605,
          54.4078438
        ]
      },
      "id": "node/402935019"
    },
    {
      "type": "Feature",
      "properties": {
        "@id": "node/406298552",
        "waterway": "waterfall"
      },
      "geometry": {
        "type": "Point",
        "coordinates": [
          -1.7984355,
          54.5300155
        ]
      },
      "id": "node/406298552"
    },
    {
      "type": "Feature",
      "properties": {
        "@id": "node/406371183",
        "name": "Hugghill Force",
        "waterway": "waterfall"
      },
      "geometry": {
        "type": "Point",
        "coordinates": [
          -2.0374357,
          54.5071932
        ]
      },
      "id": "node/406371183"
    },
    {
      "type": "Feature",
      "properties": {
        "@id": "node/406623385",
        "name": "Aygill Force",
        "source": "NPE",
        "waterway": "waterfall"
      },
      "geometry": {
        "type": "Point",
        "coordinates": [
          -2.1720322,
          54.4892292
        ]
      },
      "id": "node/406623385"
    },
    {
      "type": "Feature",
      "properties": {
        "@id": "node/410122949",
        "intermittent": "yes",
        "source": "NPE",
        "waterway": "waterfall"
      },
      "geometry": {
        "type": "Point",
        "coordinates": [
          -2.0633331,
          54.1194363
        ]
      },
      "id": "node/410122949"
    },
    {
      "type": "Feature",
      "properties": {
        "@id": "node/410952233",
        "name": "Blackling Hole waterfall",
        "waterway": "waterfall"
      },
      "geometry": {
        "type": "Point",
        "coordinates": [
          -1.9191705,
          54.6430298
        ]
      },
      "id": "node/410952233"
    },
    {
      "type": "Feature",
      "properties": {
        "@id": "node/411740631",
        "source": "OS sheet 185, publ 1848",
        "waterway": "waterfall"
      },
      "geometry": {
        "type": "Point",
        "coordinates": [
          -1.9035249,
          53.9067618
        ]
      },
      "id": "node/411740631"
    },
    {
      "type": "Feature",
      "properties": {
        "@id": "node/417655578",
        "alt_name": "waterfall of the snow",
        "name": "Sgwd yr Eira",
        "waterway": "waterfall"
      },
      "geometry": {
        "type": "Point",
        "coordinates": [
          -3.5540607,
          51.7782916
        ]
      },
      "id": "node/417655578"
    },
    {
      "type": "Feature",
      "properties": {
        "@id": "node/426602743",
        "name": "Maizebeck Force",
        "source": "OS 1854;Bing",
        "waterway": "waterfall"
      },
      "geometry": {
        "type": "Point",
        "coordinates": [
          -2.308767,
          54.6399299
        ]
      },
      "id": "node/426602743"
    },
    {
      "type": "Feature",
      "properties": {
        "@id": "node/426716627",
        "image": "https://www.geograph.org.uk/photo/1396178",
        "waterway": "waterfall"
      },
      "geometry": {
        "type": "Point",
        "coordinates": [
          -2.1370807,
          54.6305463
        ]
      },
      "id": "node/426716627"
    },
    {
      "type": "Feature",
      "properties": {
        "@id": "node/426743274",
        "source": "NLS-OS-NatGrid-110k-1940-60",
        "waterway": "waterfall"
      },
      "geometry": {
        "type": "Point",
        "coordinates": [
          -2.1290212,
          54.6255053
        ]
      },
      "id": "node/426743274"
    },
    {
      "type": "Feature",
      "properties": {
        "@id": "node/426767831",
        "source": "NLS-OS-NatGrid-110k-1940-60",
        "waterway": "waterfall"
      },
      "geometry": {
        "type": "Point",
        "coordinates": [
          -2.2071026,
          54.6044237
        ]
      },
      "id": "node/426767831"
    },
    {
      "type": "Feature",
      "properties": {
        "@id": "node/428152990",
        "waterway": "waterfall"
      },
      "geometry": {
        "type": "Point",
        "coordinates": [
          -3.4848023,
          52.7823685
        ]
      },
      "id": "node/428152990"
    },
    {
      "type": "Feature",
      "properties": {
        "@id": "node/428163709",
        "name": "Rhiwargor Falls",
        "waterway": "waterfall"
      },
      "geometry": {
        "type": "Point",
        "coordinates": [
          -3.5541388,
          52.8088255
        ]
      },
      "id": "node/428163709"
    },
    {
      "type": "Feature",
      "properties": {
        "@id": "node/431459081",
        "natural": "waterfall",
        "waterway": "waterfall"
      },
      "geometry": {
        "type": "Point",
        "coordinates": [
          -1.8818267,
          54.0055823
        ]
      },
      "id": "node/431459081"
    },
    {
      "type": "Feature",
      "properties": {
        "@id": "node/433658966",
        "name": "Cash Force",
        "source": "NPE",
        "waterway": "waterfall"
      },
      "geometry": {
        "type": "Point",
        "coordinates": [
          -2.46677,
          54.7423182
        ]
      },
      "id": "node/433658966"
    },
    {
      "type": "Feature",
      "properties": {
        "@id": "node/433731400",
        "image": "https://www.geograph.org.uk/photo/669577",
        "name": "Arngill Force",
        "source": "NPE",
        "waterway": "waterfall"
      },
      "geometry": {
        "type": "Point",
        "coordinates": [
          -2.2367244,
          54.6061842
        ]
      },
      "id": "node/433731400"
    },
    {
      "type": "Feature",
      "properties": {
        "@id": "node/434539861",
        "fee": "yes",
        "name": "Nantcol Waterfalls",
        "tourism": "attraction",
        "waterway": "waterfall"
      },
      "geometry": {
        "type": "Point",
        "coordinates": [
          -4.0662928,
          52.8207462
        ]
      },
      "id": "node/434539861"
    },
    {
      "type": "Feature",
      "properties": {
        "@id": "node/435105966",
        "name": "Pwll Y Wrach",
        "waterway": "waterfall",
        "wikidata": "Q7262768"
      },
      "geometry": {
        "type": "Point",
        "coordinates": [
          -3.2110149,
          51.9862018
        ]
      },
      "id": "node/435105966"
    },
    {
      "type": "Feature",
      "properties": {
        "@id": "node/440342218",
        "height": "24",
        "name": "Reekie Linn",
        "tourism": "attraction",
        "waterway": "waterfall",
        "whitewater:rapid_grade": "6",
        "whitewater:rapid_name": "Reekie Linn",
        "wikidata": "Q7306833",
        "wikipedia": "en:Reekie Linn"
      },
      "geometry": {
        "type": "Point",
        "coordinates": [
          -3.2200547,
          56.6697001
        ]
      },
      "id": "node/440342218"
    },
    {
      "type": "Feature",
      "properties": {
        "@id": "node/443837801",
        "name": "Pistyll Rhaeadr",
        "waterway": "waterfall",
        "wikidata": "Q572158"
      },
      "geometry": {
        "type": "Point",
        "coordinates": [
          -3.3787945,
          52.8550952
        ]
      },
      "id": "node/443837801"
    },
    {
      "type": "Feature",
      "properties": {
        "@id": "node/456474537",
        "waterway": "waterfall"
      },
      "geometry": {
        "type": "Point",
        "coordinates": [
          -2.9177808,
          54.3706068
        ]
      },
      "id": "node/456474537"
    },
    {
      "type": "Feature",
      "properties": {
        "@id": "node/461707558",
        "height": "60",
        "name": "Grey Mare's Tail",
        "waterway": "waterfall"
      },
      "geometry": {
        "type": "Point",
        "coordinates": [
          -3.2929842,
          55.4215986
        ]
      },
      "id": "node/461707558"
    },
    {
      "type": "Feature",
      "properties": {
        "@id": "node/466194458",
        "waterway": "waterfall"
      },
      "geometry": {
        "type": "Point",
        "coordinates": [
          -1.679869,
          53.292687
        ]
      },
      "id": "node/466194458"
    },
    {
      "type": "Feature",
      "properties": {
        "@id": "node/471996688",
        "waterway": "waterfall"
      },
      "geometry": {
        "type": "Point",
        "coordinates": [
          -0.7366902,
          51.6215987
        ]
      },
      "id": "node/471996688"
    },
    {
      "type": "Feature",
      "properties": {
        "@id": "node/472354231",
        "waterway": "waterfall"
      },
      "geometry": {
        "type": "Point",
        "coordinates": [
          -2.0130165,
          53.7790177
        ]
      },
      "id": "node/472354231"
    },
    {
      "type": "Feature",
      "properties": {
        "@id": "node/472372220",
        "name": "Black Water Falls",
        "tourism": "attraction",
        "waterway": "waterfall"
      },
      "geometry": {
        "type": "Point",
        "coordinates": [
          -4.6777872,
          57.6370807
        ]
      },
      "id": "node/472372220"
    },
    {
      "type": "Feature",
      "properties": {
        "@id": "node/475418630",
        "tourism": "attraction",
        "waterway": "waterfall"
      },
      "geometry": {
        "type": "Point",
        "coordinates": [
          -4.373437,
          56.3586807
        ]
      },
      "id": "node/475418630"
    },
    {
      "type": "Feature",
      "properties": {
        "@id": "node/478931107",
        "image": "https://www.geograph.org.uk/photo/5105644",
        "name": "East Gill Force (upper)",
        "waterway": "waterfall",
        "wikidata": "Q5328445",
        "wikipedia": "en:East Gill Force"
      },
      "geometry": {
        "type": "Point",
        "coordinates": [
          -2.1610951,
          54.4053284
        ]
      },
      "id": "node/478931107"
    },
    {
      "type": "Feature",
      "properties": {
        "@id": "node/485348150",
        "name": "Hard Level Force",
        "waterway": "waterfall"
      },
      "geometry": {
        "type": "Point",
        "coordinates": [
          -2.0494222,
          54.4028401
        ]
      },
      "id": "node/485348150"
    },
    {
      "type": "Feature",
      "properties": {
        "@id": "node/487562376",
        "name": "Falls of Kirkaig",
        "waterway": "waterfall",
        "wikidata": "Q1878754"
      },
      "geometry": {
        "type": "Point",
        "coordinates": [
          -5.2065974,
          58.1092425
        ]
      },
      "id": "node/487562376"
    },
    {
      "type": "Feature",
      "properties": {
        "@id": "node/492099459",
        "name": "Falls of Orchy",
        "waterway": "waterfall",
        "whitewater:rapid_grade": "5",
        "whitewater:rapid_name": "Falls of Orchy/Eas a Chathaidh"
      },
      "geometry": {
        "type": "Point",
        "coordinates": [
          -4.8522949,
          56.4483966
        ]
      },
      "id": "node/492099459"
    },
    {
      "type": "Feature",
      "properties": {
        "@id": "node/492213929",
        "waterway": "waterfall",
        "whitewater:rapid_grade": "6",
        "whitewater:rapid_name": "Falls of Braan"
      },
      "geometry": {
        "type": "Point",
        "coordinates": [
          -3.6152713,
          56.5573125
        ]
      },
      "id": "node/492213929"
    },
    {
      "type": "Feature",
      "properties": {
        "@id": "node/495787088",
        "waterway": "waterfall"
      },
      "geometry": {
        "type": "Point",
        "coordinates": [
          -2.0450341,
          53.7382707
        ]
      },
      "id": "node/495787088"
    },
    {
      "type": "Feature",
      "properties": {
        "@id": "node/505363119",
        "waterway": "waterfall"
      },
      "geometry": {
        "type": "Point",
        "coordinates": [
          -2.5822233,
          54.0415506
        ]
      },
      "id": "node/505363119"
    },
    {
      "type": "Feature",
      "properties": {
        "@id": "node/505890596",
        "name": "Kendall Fall",
        "waterway": "waterfall"
      },
      "geometry": {
        "type": "Point",
        "coordinates": [
          -2.0131017,
          54.357725
        ]
      },
      "id": "node/505890596"
    },
    {
      "type": "Feature",
      "properties": {
        "@id": "node/506262381",
        "image": "https://www.geograph.org.uk/photo/613040",
        "name": "Kisdon Force",
        "waterway": "waterfall",
        "wikidata": "Q4584456",
        "wikipedia": "en:Kisdon Force"
      },
      "geometry": {
        "type": "Point",
        "coordinates": [
          -2.1576273,
          54.4041573
        ]
      },
      "id": "node/506262381"
    },
    {
      "type": "Feature",
      "properties": {
        "@id": "node/506378565",
        "waterway": "waterfall"
      },
      "geometry": {
        "type": "Point",
        "coordinates": [
          -6.5261383,
          55.1970098
        ]
      },
      "id": "node/506378565"
    },
    {
      "type": "Feature",
      "properties": {
        "@id": "node/507279698",
        "waterway": "waterfall"
      },
      "geometry": {
        "type": "Point",
        "coordinates": [
          -1.6025199,
          53.2270333
        ]
      },
      "id": "node/507279698"
    },
    {
      "type": "Feature",
      "properties": {
        "@id": "node/521742385",
        "waterway": "waterfall"
      },
      "geometry": {
        "type": "Point",
        "coordinates": [
          -2.0386555,
          54.3678479
        ]
      },
      "id": "node/521742385"
    },
    {
      "type": "Feature",
      "properties": {
        "@id": "node/521742386",
        "name": "Haverdale Falls",
        "waterway": "waterfall"
      },
      "geometry": {
        "type": "Point",
        "coordinates": [
          -2.0383988,
          54.3678982
        ]
      },
      "id": "node/521742386"
    },
    {
      "type": "Feature",
      "properties": {
        "@id": "node/533735960",
        "fixme": "any better tags for these?",
        "waterway": "waterfall"
      },
      "geometry": {
        "type": "Point",
        "coordinates": [
          -2.6065567,
          51.44646
        ]
      },
      "id": "node/533735960"
    },
    {
      "type": "Feature",
      "properties": {
        "@id": "node/533735969",
        "fixme": "any better tags for these?",
        "waterway": "waterfall"
      },
      "geometry": {
        "type": "Point",
        "coordinates": [
          -2.6043895,
          51.4464165
        ]
      },
      "id": "node/533735969"
    },
    {
      "type": "Feature",
      "properties": {
        "@id": "node/535201231",
        "waterway": "waterfall"
      },
      "geometry": {
        "type": "Point",
        "coordinates": [
          -1.6514479,
          53.3506338
        ]
      },
      "id": "node/535201231"
    },
    {
      "type": "Feature",
      "properties": {
        "@id": "node/538527937",
        "waterway": "waterfall"
      },
      "geometry": {
        "type": "Point",
        "coordinates": [
          -5.7272529,
          54.658831
        ]
      },
      "id": "node/538527937"
    },
    {
      "type": "Feature",
      "properties": {
        "@id": "node/539458771",
        "source": "OS7",
        "waterway": "waterfall"
      },
      "geometry": {
        "type": "Point",
        "coordinates": [
          -5.4345505,
          55.7940879
        ]
      },
      "id": "node/539458771"
    },
    {
      "type": "Feature",
      "properties": {
        "@id": "node/541498186",
        "source": "OS7",
        "waterway": "waterfall"
      },
      "geometry": {
        "type": "Point",
        "coordinates": [
          -5.4645316,
          55.8621603
        ]
      },
      "id": "node/541498186"
    },
    {
      "type": "Feature",
      "properties": {
        "@id": "node/541498533",
        "source": "OS7",
        "waterway": "waterfall"
      },
      "geometry": {
        "type": "Point",
        "coordinates": [
          -5.4640766,
          55.862206
        ]
      },
      "id": "node/541498533"
    },
    {
      "type": "Feature",
      "properties": {
        "@id": "node/561428620",
        "waterway": "waterfall"
      },
      "geometry": {
        "type": "Point",
        "coordinates": [
          -6.0860891,
          57.2477221
        ]
      },
      "id": "node/561428620"
    },
    {
      "type": "Feature",
      "properties": {
        "@id": "node/563230710",
        "name": "Fairy Pools",
        "tourism": "attraction",
        "waterway": "waterfall",
        "wikidata": "Q24993835"
      },
      "geometry": {
        "type": "Point",
        "coordinates": [
          -6.2583441,
          57.250234
        ]
      },
      "id": "node/563230710"
    },
    {
      "type": "Feature",
      "properties": {
        "@id": "node/563690813",
        "waterway": "waterfall"
      },
      "geometry": {
        "type": "Point",
        "coordinates": [
          -6.2136323,
          57.3549145
        ]
      },
      "id": "node/563690813"
    },
    {
      "type": "Feature",
      "properties": {
        "@id": "node/563690814",
        "waterway": "waterfall"
      },
      "geometry": {
        "type": "Point",
        "coordinates": [
          -6.2113149,
          57.3558868
        ]
      },
      "id": "node/563690814"
    },
    {
      "type": "Feature",
      "properties": {
        "@id": "node/563698130",
        "waterway": "waterfall"
      },
      "geometry": {
        "type": "Point",
        "coordinates": [
          -1.8851255,
          54.8447579
        ]
      },
      "id": "node/563698130"
    },
    {
      "type": "Feature",
      "properties": {
        "@id": "node/563752323",
        "waterway": "waterfall"
      },
      "geometry": {
        "type": "Point",
        "coordinates": [
          -6.2161214,
          57.3822213
        ]
      },
      "id": "node/563752323"
    },
    {
      "type": "Feature",
      "properties": {
        "@id": "node/563792634",
        "waterway": "waterfall"
      },
      "geometry": {
        "type": "Point",
        "coordinates": [
          -6.2222694,
          57.4102373
        ]
      },
      "id": "node/563792634"
    },
    {
      "type": "Feature",
      "properties": {
        "@id": "node/563831866",
        "waterway": "waterfall"
      },
      "geometry": {
        "type": "Point",
        "coordinates": [
          -5.961245,
          57.2567141
        ]
      },
      "id": "node/563831866"
    },
    {
      "type": "Feature",
      "properties": {
        "@id": "node/563872669",
        "waterway": "waterfall"
      },
      "geometry": {
        "type": "Point",
        "coordinates": [
          -5.9837931,
          57.2150555
        ]
      },
      "id": "node/563872669"
    },
    {
      "type": "Feature",
      "properties": {
        "@id": "node/564650122",
        "name": "Bishops Linn",
        "waterway": "waterfall"
      },
      "geometry": {
        "type": "Point",
        "coordinates": [
          -2.5167797,
          54.9461565
        ]
      },
      "id": "node/564650122"
    },
    {
      "type": "Feature",
      "properties": {
        "@id": "node/566741309",
        "waterway": "waterfall"
      },
      "geometry": {
        "type": "Point",
        "coordinates": [
          -2.4161052,
          54.8163124
        ]
      },
      "id": "node/566741309"
    },
    {
      "type": "Feature",
      "properties": {
        "@id": "node/567138232",
        "source": "estimate",
        "waterway": "waterfall"
      },
      "geometry": {
        "type": "Point",
        "coordinates": [
          -5.8058652,
          57.3662441
        ]
      },
      "id": "node/567138232"
    },
    {
      "type": "Feature",
      "properties": {
        "@id": "node/567168274",
        "natural": "cliff",
        "waterway": "waterfall"
      },
      "geometry": {
        "type": "Point",
        "coordinates": [
          -6.0040446,
          57.3751359
        ]
      },
      "id": "node/567168274"
    },
    {
      "type": "Feature",
      "properties": {
        "@id": "node/567229787",
        "name": "Eas Ban",
        "source": "OS7",
        "waterway": "waterfall"
      },
      "geometry": {
        "type": "Point",
        "coordinates": [
          -5.7349831,
          57.2493603
        ]
      },
      "id": "node/567229787"
    },
    {
      "type": "Feature",
      "properties": {
        "@id": "node/567437149",
        "source": "OS7",
        "waterway": "waterfall"
      },
      "geometry": {
        "type": "Point",
        "coordinates": [
          -5.7020319,
          57.5225303
        ]
      },
      "id": "node/567437149"
    },
    {
      "type": "Feature",
      "properties": {
        "@id": "node/567462109",
        "source": "OS7",
        "waterway": "waterfall"
      },
      "geometry": {
        "type": "Point",
        "coordinates": [
          -5.8539281,
          57.5395025
        ]
      },
      "id": "node/567462109"
    },
    {
      "type": "Feature",
      "properties": {
        "@id": "node/583176579",
        "waterway": "waterfall"
      },
      "geometry": {
        "type": "Point",
        "coordinates": [
          -3.5956674,
          51.7594954
        ]
      },
      "id": "node/583176579"
    },
    {
      "type": "Feature",
      "properties": {
        "@id": "node/583176626",
        "waterway": "waterfall"
      },
      "geometry": {
        "type": "Point",
        "coordinates": [
          -3.5981946,
          51.7645814
        ]
      },
      "id": "node/583176626"
    },
    {
      "type": "Feature",
      "properties": {
        "@id": "node/583359454",
        "waterway": "waterfall"
      },
      "geometry": {
        "type": "Point",
        "coordinates": [
          -4.9785419,
          56.666543
        ]
      },
      "id": "node/583359454"
    },
    {
      "type": "Feature",
      "properties": {
        "@id": "node/592194801",
        "name": "Cascade",
        "waterway": "waterfall"
      },
      "geometry": {
        "type": "Point",
        "coordinates": [
          -2.4404244,
          51.3768589
        ]
      },
      "id": "node/592194801"
    },
    {
      "type": "Feature",
      "properties": {
        "@id": "node/598597557",
        "waterway": "waterfall"
      },
      "geometry": {
        "type": "Point",
        "coordinates": [
          -4.0479319,
          53.1750542
        ]
      },
      "id": "node/598597557"
    },
    {
      "type": "Feature",
      "properties": {
        "@id": "node/604683563",
        "name": "Avington Park",
        "waterway": "waterfall"
      },
      "geometry": {
        "type": "Point",
        "coordinates": [
          -1.2359995,
          51.0894951
        ]
      },
      "id": "node/604683563"
    },
    {
      "type": "Feature",
      "properties": {
        "@id": "node/609643893",
        "name": "Falls of Keltney",
        "waterway": "waterfall",
        "wikidata": "Q5432524",
        "wikipedia": "en:Falls of Keltney"
      },
      "geometry": {
        "type": "Point",
        "coordinates": [
          -4.0026725,
          56.6219782
        ]
      },
      "id": "node/609643893"
    },
    {
      "type": "Feature",
      "properties": {
        "@id": "node/612940890",
        "waterway": "waterfall"
      },
      "geometry": {
        "type": "Point",
        "coordinates": [
          -3.127778,
          54.5159022
        ]
      },
      "id": "node/612940890"
    },
    {
      "type": "Feature",
      "properties": {
        "@id": "node/623610876",
        "waterway": "waterfall"
      },
      "geometry": {
        "type": "Point",
        "coordinates": [
          -3.8327178,
          56.8284251
        ]
      },
      "id": "node/623610876"
    },
    {
      "type": "Feature",
      "properties": {
        "@id": "node/641374042",
        "waterway": "waterfall"
      },
      "geometry": {
        "type": "Point",
        "coordinates": [
          0.7071848,
          51.546725
        ]
      },
      "id": "node/641374042"
    },
    {
      "type": "Feature",
      "properties": {
        "@id": "node/654120619",
        "height": "3",
        "name": "Goit Stock Falls",
        "waterway": "waterfall"
      },
      "geometry": {
        "type": "Point",
        "coordinates": [
          -1.8839796,
          53.8278954
        ]
      },
      "id": "node/654120619"
    },
    {
      "type": "Feature",
      "properties": {
        "@id": "node/659813577",
        "source": "estimate",
        "waterway": "waterfall"
      },
      "geometry": {
        "type": "Point",
        "coordinates": [
          -6.1657867,
          57.1791177
        ]
      },
      "id": "node/659813577"
    },
    {
      "type": "Feature",
      "properties": {
        "@id": "node/662805171",
        "name": "Tairlaw Linn",
        "waterway": "waterfall",
        "wikidata": "Q7676371",
        "wikipedia": "en:Tairlaw Linn"
      },
      "geometry": {
        "type": "Point",
        "coordinates": [
          -4.507042,
          55.278017
        ]
      },
      "id": "node/662805171"
    },
    {
      "type": "Feature",
      "properties": {
        "@id": "node/664808472",
        "name": "Glen Nevis Lower Falls",
        "name:gd": "Eas Bhuide",
        "source": "survey;OS_OpenData_StreetView",
        "waterway": "waterfall"
      },
      "geometry": {
        "type": "Point",
        "coordinates": [
          -5.0365166,
          56.7703856
        ]
      },
      "id": "node/664808472"
    },
    {
      "type": "Feature",
      "properties": {
        "@id": "node/665680671",
        "height": "120",
        "name": "Steall Falls",
        "name:gd": "An Steall",
        "source": "OS_OpenData_StreetView",
        "waterway": "waterfall",
        "wikidata": "Q38441",
        "wikipedia": "en:Steall Waterfall"
      },
      "geometry": {
        "type": "Point",
        "coordinates": [
          -4.9798298,
          56.7702419
        ]
      },
      "id": "node/665680671"
    },
    {
      "type": "Feature",
      "properties": {
        "@id": "node/667065583",
        "waterway": "waterfall"
      },
      "geometry": {
        "type": "Point",
        "coordinates": [
          -3.1066158,
          54.3811441
        ]
      },
      "id": "node/667065583"
    },
    {
      "type": "Feature",
      "properties": {
        "@id": "node/669210493",
        "waterway": "waterfall"
      },
      "geometry": {
        "type": "Point",
        "coordinates": [
          -5.0414851,
          50.2207264
        ]
      },
      "id": "node/669210493"
    },
    {
      "type": "Feature",
      "properties": {
        "@id": "node/669646349",
        "waterway": "waterfall"
      },
      "geometry": {
        "type": "Point",
        "coordinates": [
          -1.2836831,
          54.6812799
        ]
      },
      "id": "node/669646349"
    },
    {
      "type": "Feature",
      "properties": {
        "@id": "node/669876097",
        "waterway": "waterfall"
      },
      "geometry": {
        "type": "Point",
        "coordinates": [
          -2.8423205,
          54.5086678
        ]
      },
      "id": "node/669876097"
    },
    {
      "type": "Feature",
      "properties": {
        "@id": "node/670743153",
        "waterway": "waterfall"
      },
      "geometry": {
        "type": "Point",
        "coordinates": [
          -2.8014871,
          54.49775
        ]
      },
      "id": "node/670743153"
    },
    {
      "type": "Feature",
      "properties": {
        "@id": "node/670743285",
        "waterway": "waterfall"
      },
      "geometry": {
        "type": "Point",
        "coordinates": [
          -2.8011249,
          54.4989032
        ]
      },
      "id": "node/670743285"
    },
    {
      "type": "Feature",
      "properties": {
        "@id": "node/670743286",
        "waterway": "waterfall"
      },
      "geometry": {
        "type": "Point",
        "coordinates": [
          -2.8014488,
          54.4987885
        ]
      },
      "id": "node/670743286"
    },
    {
      "type": "Feature",
      "properties": {
        "@id": "node/672845077",
        "name": "Culnaskiach Falls",
        "source:name": "OS_OpenData_StreetView",
        "waterway": "waterfall",
        "wikidata": "Q5193090",
        "wikipedia": "en:Culnaskiach Falls"
      },
      "geometry": {
        "type": "Point",
        "coordinates": [
          -4.5208894,
          57.3904613
        ]
      },
      "id": "node/672845077"
    },
    {
      "type": "Feature",
      "properties": {
        "@id": "node/676132567",
        "name": "Sheffield Mill",
        "waterway": "waterfall"
      },
      "geometry": {
        "type": "Point",
        "coordinates": [
          0.0163215,
          51.0140837
        ]
      },
      "id": "node/676132567"
    },
    {
      "type": "Feature",
      "properties": {
        "@id": "node/676790381",
        "name": "Horseshoe falls",
        "waterway": "waterfall"
      },
      "geometry": {
        "type": "Point",
        "coordinates": [
          -4.1429882,
          55.7493272
        ]
      },
      "id": "node/676790381"
    },
    {
      "type": "Feature",
      "properties": {
        "@id": "node/679119764",
        "name": "Cascade",
        "name:ru": "??????",
        "waterway": "waterfall"
      },
      "geometry": {
        "type": "Point",
        "coordinates": [
          -0.2587419,
          51.4828188
        ]
      },
      "id": "node/679119764"
    },
    {
      "type": "Feature",
      "properties": {
        "@id": "node/681790254",
        "waterway": "waterfall"
      },
      "geometry": {
        "type": "Point",
        "coordinates": [
          -3.0519813,
          54.691041
        ]
      },
      "id": "node/681790254"
    },
    {
      "type": "Feature",
      "properties": {
        "@id": "node/684740770",
        "source": "OS1:25k_OSM",
        "waterway": "waterfall"
      },
      "geometry": {
        "type": "Point",
        "coordinates": [
          -2.274457,
          54.3178324
        ]
      },
      "id": "node/684740770"
    },
    {
      "type": "Feature",
      "properties": {
        "@id": "node/684825956",
        "waterway": "waterfall"
      },
      "geometry": {
        "type": "Point",
        "coordinates": [
          -2.2841911,
          54.3160972
        ]
      },
      "id": "node/684825956"
    },
    {
      "type": "Feature",
      "properties": {
        "@id": "node/684825958",
        "waterway": "waterfall"
      },
      "geometry": {
        "type": "Point",
        "coordinates": [
          -2.284091,
          54.3162854
        ]
      },
      "id": "node/684825958"
    },
    {
      "type": "Feature",
      "properties": {
        "@id": "node/688493479",
        "name": "Sherbrook Chine",
        "waterway": "waterfall"
      },
      "geometry": {
        "type": "Point",
        "coordinates": [
          -3.336084,
          50.6249149
        ]
      },
      "id": "node/688493479"
    },
    {
      "type": "Feature",
      "properties": {
        "@id": "node/689209841",
        "name": "Triple Spout",
        "waterway": "waterfall"
      },
      "geometry": {
        "type": "Point",
        "coordinates": [
          -2.4525954,
          54.1671152
        ]
      },
      "id": "node/689209841"
    },
    {
      "type": "Feature",
      "properties": {
        "@id": "node/690979134",
        "waterway": "waterfall"
      },
      "geometry": {
        "type": "Point",
        "coordinates": [
          -2.4628435,
          54.200265
        ]
      },
      "id": "node/690979134"
    },
    {
      "type": "Feature",
      "properties": {
        "@id": "node/691842571",
        "waterway": "waterfall"
      },
      "geometry": {
        "type": "Point",
        "coordinates": [
          -3.5830263,
          51.1688997
        ]
      },
      "id": "node/691842571"
    },
    {
      "type": "Feature",
      "properties": {
        "@id": "node/697094693",
        "waterway": "waterfall"
      },
      "geometry": {
        "type": "Point",
        "coordinates": [
          -4.1330512,
          57.5996606
        ]
      },
      "id": "node/697094693"
    },
    {
      "type": "Feature",
      "properties": {
        "@id": "node/703392345",
        "attraction": "natural_feature",
        "description": "Waterfall in a wooden gorge. Apparently a favourite spot of composer Edward Elgar",
        "name": "Catrigg Force",
        "tourism": "attraction",
        "waterway": "waterfall"
      },
      "geometry": {
        "type": "Point",
        "coordinates": [
          -2.258105,
          54.0993419
        ]
      },
      "id": "node/703392345"
    },
    {
      "type": "Feature",
      "properties": {
        "@id": "node/704483180",
        "waterway": "waterfall"
      },
      "geometry": {
        "type": "Point",
        "coordinates": [
          -3.4436759,
          56.3862705
        ]
      },
      "id": "node/704483180"
    },
    {
      "type": "Feature",
      "properties": {
        "@id": "node/706178119",
        "waterway": "waterfall"
      },
      "geometry": {
        "type": "Point",
        "coordinates": [
          -4.0074732,
          55.8093436
        ]
      },
      "id": "node/706178119"
    },
    {
      "type": "Feature",
      "properties": {
        "@id": "node/706264069",
        "waterway": "waterfall"
      },
      "geometry": {
        "type": "Point",
        "coordinates": [
          -3.3063346,
          55.8430452
        ]
      },
      "id": "node/706264069"
    },
    {
      "type": "Feature",
      "properties": {
        "@id": "node/708799348",
        "name": "Hardraw Force",
        "tourism": "attraction",
        "waterway": "waterfall"
      },
      "geometry": {
        "type": "Point",
        "coordinates": [
          -2.2019924,
          54.3198038
        ]
      },
      "id": "node/708799348"
    },
    {
      "type": "Feature",
      "properties": {
        "@id": "node/715854013",
        "waterway": "waterfall"
      },
      "geometry": {
        "type": "Point",
        "coordinates": [
          -4.7976145,
          56.771042
        ]
      },
      "id": "node/715854013"
    },
    {
      "type": "Feature",
      "properties": {
        "@id": "node/721477205",
        "waterway": "waterfall"
      },
      "geometry": {
        "type": "Point",
        "coordinates": [
          -6.2724853,
          56.9939459
        ]
      },
      "id": "node/721477205"
    },
    {
      "type": "Feature",
      "properties": {
        "@id": "node/721492421",
        "waterway": "waterfall"
      },
      "geometry": {
        "type": "Point",
        "coordinates": [
          -6.2711212,
          56.9950537
        ]
      },
      "id": "node/721492421"
    },
    {
      "type": "Feature",
      "properties": {
        "@id": "node/726123961",
        "height": "18",
        "name": "Mallyan Spout",
        "tourism": "attraction",
        "waterway": "waterfall",
        "wikidata": "Q21061624",
        "wikipedia": "en:Mallyan Spout"
      },
      "geometry": {
        "type": "Point",
        "coordinates": [
          -0.7318355,
          54.3977102
        ]
      },
      "id": "node/726123961"
    },
    {
      "type": "Feature",
      "properties": {
        "@id": "node/733050028",
        "waterway": "waterfall"
      },
      "geometry": {
        "type": "Point",
        "coordinates": [
          -2.3503049,
          54.3668556
        ]
      },
      "id": "node/733050028"
    },
    {
      "type": "Feature",
      "properties": {
        "@id": "node/735036360",
        "source": "gps+mapnoter",
        "waterway": "waterfall"
      },
      "geometry": {
        "type": "Point",
        "coordinates": [
          -0.0474504,
          51.5337319
        ]
      },
      "id": "node/735036360"
    },
    {
      "type": "Feature",
      "properties": {
        "@id": "node/736866218",
        "waterway": "waterfall"
      },
      "geometry": {
        "type": "Point",
        "coordinates": [
          -2.9893312,
          54.5187889
        ]
      },
      "id": "node/736866218"
    },
    {
      "type": "Feature",
      "properties": {
        "@id": "node/741627717",
        "waterway": "waterfall"
      },
      "geometry": {
        "type": "Point",
        "coordinates": [
          -3.2234355,
          54.6422275
        ]
      },
      "id": "node/741627717"
    },
    {
      "type": "Feature",
      "properties": {
        "@id": "node/745976046",
        "fixme": "This is probably the wrong place.",
        "waterway": "waterfall"
      },
      "geometry": {
        "type": "Point",
        "coordinates": [
          -4.3927364,
          52.1946377
        ]
      },
      "id": "node/745976046"
    },
    {
      "type": "Feature",
      "properties": {
        "@id": "node/746539969",
        "waterway": "waterfall"
      },
      "geometry": {
        "type": "Point",
        "coordinates": [
          -5.655689,
          56.859243
        ]
      },
      "id": "node/746539969"
    },
    {
      "type": "Feature",
      "properties": {
        "@id": "node/759707540",
        "name": "Colwith Force",
        "waterway": "waterfall"
      },
      "geometry": {
        "type": "Point",
        "coordinates": [
          -3.0373276,
          54.4193838
        ]
      },
      "id": "node/759707540"
    },
    {
      "type": "Feature",
      "properties": {
        "@id": "node/760377914",
        "height": "3",
        "name": "Yad Waterfall",
        "waterway": "waterfall"
      },
      "geometry": {
        "type": "Point",
        "coordinates": [
          -3.2364938,
          56.2480313
        ]
      },
      "id": "node/760377914"
    },
    {
      "type": "Feature",
      "properties": {
        "@id": "node/760605142",
        "waterway": "waterfall"
      },
      "geometry": {
        "type": "Point",
        "coordinates": [
          -2.7240351,
          51.6910299
        ]
      },
      "id": "node/760605142"
    },
    {
      "type": "Feature",
      "properties": {
        "@id": "node/763557364",
        "fixme": "exact location relative to footpath needs confirming",
        "source": "OS sheet 185, publ. 1848",
        "waterway": "waterfall"
      },
      "geometry": {
        "type": "Point",
        "coordinates": [
          -1.9176876,
          53.915333
        ]
      },
      "id": "node/763557364"
    },
    {
      "type": "Feature",
      "properties": {
        "@id": "node/768908461",
        "waterway": "waterfall"
      },
      "geometry": {
        "type": "Point",
        "coordinates": [
          -2.2449628,
          53.8560288
        ]
      },
      "id": "node/768908461"
    },
    {
      "type": "Feature",
      "properties": {
        "@id": "node/774003948",
        "name": "Cenarth Falls",
        "waterway": "waterfall",
        "wikidata": "Q5058789",
        "wikimedia_commons": "File:Cenarth Falls at dusk - geograph.org.uk - 268342.jpg",
        "wikipedia": "en:Cenarth Falls"
      },
      "geometry": {
        "type": "Point",
        "coordinates": [
          -4.5239854,
          52.0456459
        ]
      },
      "id": "node/774003948"
    },
    {
      "type": "Feature",
      "properties": {
        "@id": "node/784194904",
        "waterway": "waterfall"
      },
      "geometry": {
        "type": "Point",
        "coordinates": [
          -5.4896393,
          56.9921641
        ]
      },
      "id": "node/784194904"
    },